iso8601_utc,lat,lon,alt_m,hdop,sats,fix_ok,heading_deg,pitch_deg,roll_deg,accel_x_mg,accel_y_mg,accel_z_mg,signal_type,worker,identifier,name,rssi_dbm,channel,extra1,extra2,extra3
2026-01-19T22:52:14Z,0.0000000,0.0000000,0.0,9999,0,0,,,,,,,WIFI,C,"02:17:1A:D6:22:12","Winegard2ghzD62211",-75,10,4,,,
2026-01-19T22:52:14Z,0.0000000,0.0000000,0.0,9999,0,0,,,,,,,WIFI,B,"02:17:1A:D6:22:1","Winegard2ghzD62211",-75,7,4,,,
2026-01-19T22:52:14Z,0.0000000,0.0000000,0.0,9999,0,0,,,,,,,BLE,M,"30:1b:f2:0f:ba:5e","",-68,,-127,0x0000,0x00
2026-01-19T22:52:14Z,0.0000000,0.0000000,0.0,9999,0,0,,,,,,,BLE,M,"40:15:65:d8:da:e5","",-98,,12,0x0000,0x00
2026-01-19T22:52:14Z,0.0000000,0.0000000,0.0,9999,0,0,,,,,,,BLE,M,"3d:55:43:33:7c:00","",-83,,-127,0x0000,0x00
2026-01-19T22:52:14Z,0.0000000,0.0000000,0.0,9999,0,0,,,,,,,BLE,M,"30:1b:f2:0f:ba:5e","",-65,,-127,0x0000,0x00
2026-01-19T22:52:14Z,0.0000000,0.0000000,0.0,9999,0,0,,,,,,,BLE,M,"3d:55:43:33:7c:00","",-83,,-127,0x0000,0x00
2026-01-19T22:52:14Z,0.0000000,0.0000000,0.0,9999,0,0,,,,,,,BLE,M,"dd:6d:84:06:3b:28","GV5179_3B28",-86,,-127,0x0000,0x03
2026-01-19T22:52:14Z,0.0000000,0.0000000,0.0,9999,0,0,,,,,,,BLE,M,"30:1b:f2:0f:ba:5e","",-65,,-127,0x0000,0x00
2026-01-19T22:52:14Z,0.0000000,0.0000000,0.0,9999,0,0,,,,,,,BLE,M,"40:15:65:d8:da:e5","",-92,,12,0x0000,0x00
2026-01-19T22:52:15Z,0.0000000,0.0000000,0.0,9999,0,0,,,,,,,WIFI,A,"02:17:1A:D6:22:12","Winegard2ghzD62211",-72,3,4,,,
2026-01-19T22:52:15Z,0.0000000,0.0000000,0.0,9999,0,0,,,,,,,WIFI,D,"02:17:1A:D6:22:12","Winegard2ghzD62211",-74,13,4,,,
2026-01-19T22:52:15Z,0.0000000,0.0000000,0.0,9999,0,0,,,,,,,BLE,M,"3d:55:43:33:7c:00","",-81,,-127,0x0000,0x00
2026-01-19T22:52:15Z,0.0000000,0.0000000,0.0,9999,0,0,,,,,,,WIFI,A,"0A:17:1A:D6:22:12","",-72,3,4,,,
2026-01-19T22:52:15Z,0.0000000,0.0000000,0.0,9999,0,0,,,,,,,WIFI,D,"0A:17:1A:D6:22:12","",-73,13,4,,,
2026-01-19T22:52:16Z,0.0000000,0.0000000,0.0,9999,0,0,,,,,,,BLE,M,"3d:55:43:33:7c:00","",-82,,-127,0x0000,0x00
2026-01-19T22:52:16Z,0.0000000,0.0000000,0.0,9999,0,0,,,,,,,BLE,M,"30:1b:f2:0f:ba:5e","",-58,,-127,0x0000,0x00
2026-01-19T22:52:16Z,0.0000000,0.0000000,0.0,9999,0,0,,,,,,,BLE,M,"3d:55:43:33:7c:00","",-80,,-127,0x0000,0x00
2026-01-19T22:52:16Z,0.0000000,0.0000000,0.0,9999,0,0,,,,,,,BLE,M,"30:1b:f2:0f:ba:5e","",-54,,-127,0x0000,0x00
2026-01-19T22:52:16Z,0.0000000,0.0000000,0.0,9999,0,0,,,,,,,WIFI,C,"0E:2A:5B:6C:2E:E5","",-91,8,4,,,
2026-01-19T22:52:16Z,0.0000000,0.0000000,0.0,9999,0,0,,,,,,,WIFI,B,"02:17:1A:D6:22:12","Winegard2ghzD62211",-75,5,4,,,
2026-01-19T22:52:16Z,0.0000000,0.0000000,0.0,9999,0,0,,,,,,,WIFI,B,"0A:17:1A:D6:22:12","",-75,5,4,,,
2026-01-19T22:52:16Z,0.0000000,0.0000000,0.0,9999,0,0,,,,,,,WIFI,C,"02:17:1A:D6:22:12","Winegard2ghzD62211",-77,8,4,,,
2026-01-19T22:52:16Z,0.0000000,0.0000000,0.0,9999,0,0,,,,,,,BLE,M,"dd:6d:84:06:3b:28","GV5179_3B28",-86,,-127,0x0000,0x03
2026-01-19T22:52:16Z,0.0000000,0.0000000,0.0,9999,0,0,,,,,,,BLE,M,"30:1b:f2:0f:ba:5e","",-57,,-127,0x0000,0x00
2026-01-19T22:52:16Z,0.0000000,0.0000000,0.0,9999,0,0,,,,,,,WIFI,C,"0A:17:1A:D6:22:12","",-78,8,4,,,
2026-01-19T22:52:17Z,0.0000000,0.0000000,0.0,9999,0,0,,,,,,,BLE,M,"40:15:65:d8:da:e5","",-94,,12,0x0000,0x00
2026-01-19T22:52:17Z,0.0000000,0.0000000,0.0,9999,0,0,,,,,,,BLE,M,"40:15:65:d8:da:e5","",-89,,12,0x0000,0x00
2026-01-19T22:52:17Z,0.0000000,0.0000000,0.0,9999,0,0,,,,,,,BLE,M,"3d:55:43:33:7c:00","",-87,,-127,0x0000,0x00
2026-01-19T22:52:18Z,0.0000000,0.0000000,0.0,9999,0,0,,,,,,,BLE,M,"30:1b:f2:0f:ba:5e","",-52,,-127,0x0000,0x00
2026-01-19T22:52:18Z,0.0000000,0.0000000,0.0,9999,0,0,,,,,,,BLE,M,"3d:55:43:33:7c:00","",-84,,-127,0x0000,0x00
2026-01-19T22:52:18Z,0.0000000,0.0000000,0.0,9999,0,0,,,,,,,WIFI,A,"02:17:1A:D6:22:12","Winegard2ghzD62211",-73,4,4,,,
2026-01-19T22:52:18Z,0.0000000,0.0000000,0.0,9999,0,0,,,,,,,WIFI,D,"02:17:1A:D6:22:q2","Winegard2ghzD62211",-73,14,4,,,
2026-01-19T22:52:18Z,0.0000000,0.0000000,0.0,9999,0,0,,,,,,,BLE,M,"3d:55:43:33:7c:00","",-90,,-127,0x0000,0x00
2026-01-19T22:52:18Z,0.0000000,0.0000000,0.0,9999,0,0,,,,,,,BLE,M,"75:36:92:0e:30:58","",-73,,-127,0x0000,0x00
2026-01-19T22:52:18Z,0.0000000,0.0000000,0.0,9999,0,0,,,,,,,BLE,M,"dd:6d:84:06:3b:28","GV5179_3B28",-86,,-127,0x0000,0x03
2026-01-19T22:52:19Z,0.0000000,0.0000000,0.0,9999,0,0,,,,,,,BLE,M,"75:36:92:0e:30:58","",-87,,-127,0x0000,0x00
2026-01-19T22:52:19Z,0.0000000,0.0000000,0.0,9999,0,0,,,,,,,WIFI,B,"02:17:1A:D6:22:12","Winegard2GhzD62211",-74,6,4,,,
2026-01-19T22:52:19Z,0.0000000,0.0000000,0.0,9999,0,0,,,,,,,WIFI,C,"02:17:1A:D6:22:12","Winegard2ghzD62211",-76,9,4,,,
2026-01-19T22:52:19Z,0.0000000,0.0000000,0.0,9999,0,0,,,,,,,BLE,M,"09:d3:99:b7:aa:af","",-81,,-127,0x0000,0x00
2026-01-19T22:52:19Z,0.0000000,0.0000000,0.0,9999,0,0,,,,,,,BLE,M,"75:36:92:0e:30:58","",-71,,-127,0x0000,0x00
2026-01-19T22:52:19Z,0.0000000,0.0000000,0.0,9999,0,0,,,,,,,BLE,M,"75:36:92:0e:30:58","",-74,,-127,0x0000,0x00
2026-01-19T22:52:19Z,0.0000000,0.0000000,0.0,9999,0,0,,,,,,,BLE,M,"3d:55:43:33:7c:00","",-95,,-127,0x0000,0x00
2026-01-19T22:52:19Z,0.0000000,0.0000000,0.0,9999,0,0,,,,,,,BLE,M,"75:36:92:0e:30:58","",-79,,-127,0x0000,0x00
2026-01-19T22:52:20Z,0.0000000,0.0000000,0.0,9999,0,0,,,,,,,BLE,M,"3d:55:43:33:7c:00","",-90,,-127,0x0000,0x00
2026-01-19T22:52:20Z,0.0000000,0.0000000,0.0,9999,0,0,,,,,,,BLE,M,"09:d3:99:b7:aa:af","",-74,,-127,0x0000,0x00
2026-01-19T22:52:20Z,0.0000000,0.0000000,0.0,9999,0,0,,,,,,,BLE,M,"3d:55:43:33:7c:00","",-85,,-127,0x0000,0x00
2026-01-19T22:52:20Z,0.0000000,0.0000000,0.0,9999,0,0,,,,,,,BLE,M,"40:15:65:d8:da:e5","",-94,,12,0x0000,0x00
2026-01-19T22:52:20Z,0.0000000,0.0000000,0.0,9999,0,0,,,,,,,BLE,M,"7b:32:e7:e5:04:b5","",-96,,0,0x0000,0x00
2026-01-19T22:52:20Z,0.0000000,0.0000000,0.0,9999,0,0,,,,,,,BLE,M,"dd:6d:84:06:3b:28","GV5179_3B28",-87,,-127,0x0000,0x03
2026-01-19T22:52:20Z,0.0000000,0.0000000,0.0,9999,0,0,,,,,,,WIFI,A,"02:17:1A:D6:22:12","Winegard2ghzD62211",-72,1,4,,,
2026-01-19T22:52:20Z,0.0000000,0.0000000,0.0,9999,0,0,,,,,,,WIFI,D,"02:17:1A:D6:22:12","Winegard2ghzD62211",-76,11,4,,,
2026-01-19T22:52:20Z,0.0000000,0.0000000,0.0,9999,0,0,,,,,,,WIFI,A,"0A:17:1A:D6:22:12","",-73,1,4,,,
2026-01-19T22:52:20Z,0.0000000,0.0000000,0.0,9999,0,0,,,,,,,WIFI,D,"0A:17:1A:D6:22:12","",-74,11,4,,,
2026-01-19T22:52:21Z,0.0000000,0.0000000,0.0,9999,0,0,,,,,,,BLE,M,"09:d3:99:b7:aa:af","",-78,,-127,0x0000,0x00
2026-01-19T22:52:21Z,0.0000000,0.0000000,0.0,9999,0,0,,,,,,,WIFI,B,"02:17:1A:D6:22:12","Winegard2ghzD62211",-79,7,4,,,
2026-01-19T22:52:21Z,0.0000000,0.0000000,0.0,9999,0,0,,,,,,,WIFI,B,"0A:17:1A:D6:22:12","",-71,7,4,,,
2026-01-19T22:52:21Z,0.0000000,0.0000000,0.0,9999,0,0,,,,,,,WIFI,C,"02:17:1A:D6:22:12","Winegard2ghzD62211",-75,10,4,,,
2026-01-19T22:52:21Z,0.0000000,0.0000000,0.0,9999,0,0,,,,,,,BLE,M,"3d:55:43:33:7c:00","",-89,,-127,0x0000,0x00
2026-01-19T22:52:22Z,0.0000000,0.0000000,0.0,9999,0,0,,,,,,,BLE,M,"41:1d:e8:c8:99:5e","",-98,,12,0x0000,0x00
2026-01-19T22:52:22Z,0.0000000,0.0000000,0.0,9999,0,0,,,,,,,BLE,M,"40:15:65:d8:da:e5","",-94,,12,0x0000,0x00
2026-01-19T22:52:22Z,0.0000000,0.0000000,0.0,9999,0,0,,,,,,,BLE,M,"3d:55:43:33:7c:00","",-84,,-127,0x0000,0x00
2026-01-19T22:52:22Z,0.0000000,0.0000000,0.0,9999,0,0,,,,,,,BLE,M,"41:1d:e8:c8:99:5e","",-95,,12,0x0000,0x00
2026-01-19T22:52:22Z,0.0000000,0.0000000,0.0,9999,0,0,,,,,,,BLE,M,"dd:6d:84:06:3b:28","GV5179_3B28",-89,,-127,0x0000,0x03
2026-01-19T22:52:23Z,0.0000000,0.0000000,0.0,9999,0,0,,,,,,,WIFI,A,"02:17:1A:D6:22:12","Winegard2ghzD62211",-71,2,4,,,
2026-01-19T22:52:23Z,0.0000000,0.0000000,0.0,9999,0,0,,,,,,,WIFI,D,"02:17:1A:D6:22:12","Winegard2ghzD62211",-73,12,4,,,
2026-01-19T22:52:23Z,0.0000000,0.0000000,0.0,9999,0,0,,,,,,,BLE,M,"3d:55:43:33:7c:00","",-87,,-127,0x0000,0x00
2026-01-19T22:52:24Z,0.0000000,0.0000000,0.0,9999,0,0,,,,,,,BLE,M,"3d:55:43:33:7c:00","",-88,,-127,0x0000,0x00
2026-01-19T22:52:24Z,0.0000000,0.0000000,0.0,9999,0,0,,,,,,,WIFI,C,"02:17:1A:D6:22:12","Winegard2ghzD62211",-77,8,4,,,
2026-01-19T22:52:24Z,0.0000000,0.0000000,0.0,9999,0,0,,,,,,,WIFI,B,"02:17:1A:D6:22:12","Winegard2ghzD62211",-76,5,4,,,
2026-01-19T22:52:24Z,0.0000000,0.0000000,0.0,9999,0,0,,,,,,,WIFI,C,"0A:17:1A:D6:22:12","",-78,8,4,,,
2026-01-19T22:52:24Z,0.0000000,0.0000000,0.0,9999,0,0,,,,,,,WIFI,B,"0A:17:1A:D6:22:12","",-75,5,4,,,
2026-01-19T22:52:24Z,0.0000000,0.0000000,0.0,9999,0,0,,,,,,,BLE,M,"7b:32:e7:e5:04:b5","",-99,,0,0x0000,0x00
2026-01-19T22:52:24Z,0.0000000,0.0000000,0.0,9999,0,0,,,,,,,BLE,M,"3d:55:43:33:7c:00","",-88,,-127,0x0000,0x00
2026-01-19T22:52:24Z,0.0000000,0.0000000,0.0,9999,0,0,,,,,,,BLE,M,"40:15:65:d8:da:e5","",-94,,12,0x0000,0x00
2026-01-19T22:52:24Z,0.0000000,0.0000000,0.0,9999,0,0,,,,,,,BLE,M,"dd:6d:84:06:3b:28","GV5179_3B28",-88,,-127,0x0000,0x03
2026-01-19T22:52:25Z,0.0000000,0.0000000,0.0,9999,0,0,,,,,,,BLE,M,"40:15:65:d8:da:e5","",-94,,12,0x0000,0x00
2026-01-19T22:52:25Z,0.0000000,0.0000000,0.0,9999,0,0,,,,,,,BLE,M,"40:15:65:d8:da:e5","",-95,,12,0x0000,0x00
2026-01-19T22:52:25Z,0.0000000,0.0000000,0.0,9999,0,0,,,,,,,WIFI,A,"02:17:1A:D6:22:12","Winegard2ghzD62211",-74,3,4,,,
2026-01-19T22:52:25Z,0.0000000,0.0000000,0.0,9999,0,0,,,,,,,WIFI,D,"02:17:1A:D6:22:12","Winegard2ghzD62211",-71,13,4,,,
2026-01-19T22:52:25Z,0.0000000,0.0000000,0.0,9999,0,0,,,,,,,WIFI,A,"0A:17:1A:D6:22:12","",-76,3,4,,,
2026-01-19T22:52:25Z,0.0000000,0.0000000,0.0,9999,0,0,,,,,,,WIFI,D,"0A:17:1A:D6:22:12","",-71,13,4,,,
2026-01-19T22:52:25Z,0.0000000,0.0000000,0.0,9999,0,0,,,,,,,BLE,M,"3d:55:43:33:7c:00","",-91,,-127,0x0000,0x00
2026-01-19T22:52:25Z,0.0000000,0.0000000,0.0,9999,0,0,,,,,,,BLE,M,"09:d3:99:b7:aa:af","",-90,,-127,0x0000,0x00
2026-01-19T22:52:25Z,0.0000000,0.0000000,0.0,9999,0,0,,,,,,,BLE,M,"3d:55:43:33:7c:00","",-90,,-127,0x0000,0x00
2026-01-19T22:52:25Z,0.0000000,0.0000000,0.0,9999,0,0,,,,,,,BLE,M,"41:1d:e8:c8:99:5e","",-99,,12,0x0000,0x00
2026-01-19T22:52:26Z,0.0000000,0.0000000,0.0,9999,0,0,,,,,,,BLE,M,"3d:55:43:33:7c:00","",-87,,-127,0x0000,0x00
2026-01-19T22:52:26Z,0.0000000,0.0000000,0.0,9999,0,0,,,,,,,WIFI,C,"02:17:1A:D6:22:12","Winegard2ghzD62211",-75,9,4,,,
2026-01-19T22:52:26Z,0.0000000,0.0000000,0.0,9999,0,0,,,,,,,WIFI,B,"02:17:1A:D6:22:12","Winegard2ghzD62211",-73,6,4,,,
2026-01-19T22:52:26Z,0.0000000,0.0000000,0.0,9999,0,0,,,,,,,BLE,M,"09:d3:99:b7:aa:af","",-91,,-127,0x0000,0x00
2026-01-19T22:52:26Z,0.0000000,0.0000000,0.0,9999,0,0,,,,,,,BLE,M,"dd:6d:84:06:3b:28","GV5179_3B28",-87,,-127,0x0000,0x03
2026-01-19T22:52:27Z,0.0000000,0.0000000,0.0,9999,0,0,,,,,,,BLE,M,"3d:55:43:33:7c:00","",-94,,-127,0x0000,0x00
2026-01-19T22:52:27Z,0.0000000,0.0000000,0.0,9999,0,0,,,,,,,BLE,M,"09:d3:99:b7:aa:af","",-87,,-127,0x0000,0x00
2026-01-19T22:52:27Z,0.0000000,0.0000000,0.0,9999,0,0,,,,,,,WIFI,A,"02:17:1A:D6:22:12","Winegard2ghzD62211",-75,4,4,,,
2026-01-19T22:52:27Z,0.0000000,0.0000000,0.0,9999,0,0,,,,,,,WIFI,D,"02:17:1A:D6:22:12","Winegard2ghzD62211",-68,14,4,,,
2026-01-19T22:52:27Z,0.0000000,0.0000000,0.0,9999,0,0,,,,,,,BLE,M,"40:15:65:d8:da:e5","",-95,,12,0x0000,0x00
2026-01-19T22:52:28Z,0.0000000,0.0000000,0.0,9999,0,0,,,,,,,BLE,M,"40:15:65:d8:da:e5","",-93,,12,0x0000,0x00
2026-01-19T22:52:28Z,0.0000000,0.0000000,0.0,9999,0,0,,,,,,,BLE,M,"40:15:65:d8:da:e5","",-94,,12,0x0000,0x00
2026-01-19T22:52:28Z,0.0000000,0.0000000,0.0,9999,0,0,,,,,,,BLE,M,"09:d3:99:b7:aa:af","",-92,,-127,0x0000,0x00
2026-01-19T22:52:28Z,0.0000000,0.0000000,0.0,9999,0,0,,,,,,,WIFI,C,"02:17:1A:D6:22:12","Winegard2ghzD62211",-75,10,4,,,
2026-01-19T22:52:28Z,0.0000000,0.0000000,0.0,9999,0,0,,,,,,,WIFI,B,"02:17:1A:D6:22:12","Winegard2ghzD62211",-73,7,4,,,
2026-01-19T22:52:28Z,0.0000000,0.0000000,0.0,9999,0,0,,,,,,,WIFI,B,"0A:17:1A:D6:22:12","",-73,7,4,,,
2026-01-19T22:52:28Z,0.0000000,0.0000000,0.0,9999,0,0,,,,,,,BLE,M,"dd:6d:84:06:3b:28","GV5179_3B28",-85,,-127,0x0000,0x03
2026-01-19T22:52:29Z,0.0000000,0.0000000,0.0,9999,0,0,,,,,,,BLE,M,"3d:55:43:33:7c:00","",-91,,-127,0x0000,0x00
2026-01-19T22:52:30Z,0.0000000,0.0000000,0.0,9999,0,0,,,,,,,WIFI,A,"02:17:1A:D6:22:12","Winegard2ghzD62211",-75,1,4,,,
2026-01-19T22:52:30Z,0.0000000,0.0000000,0.0,9999,0,0,,,,,,,WIFI,D,"02:17:1A:D6:22:12","Winegard2ghzD62211",-73,11,4,,,
2026-01-19T22:52:30Z,0.0000000,0.0000000,0.0,9999,0,0,,,,,,,WIFI,A,"0A:17:1A:D6:22:12","",-75,1,4,,,
2026-01-19T22:52:30Z,0.0000000,0.0000000,0.0,9999,0,0,,,,,,,WIFI,D,"0A:17:1A:D6:22:12","",-73,11,4,,,
2026-01-19T22:52:31Z,0.0000000,0.0000000,0.0,9999,0,0,,,,,,,BLE,M,"40:15:65:d8:da:e5","",-96,,12,0x0000,0x00
2026-01-19T22:52:31Z,0.0000000,0.0000000,0.0,9999,0,0,,,,,,,WIFI,C,"02:17:1A:D6:22:12","Winegard2ghzD62211",-75,8,4,,,
2026-01-19T22:52:31Z,0.0000000,0.0000000,0.0,9999,0,0,,,,,,,WIFI,C,"0A:17:1A:D6:22:12","",-75,8,4,,,
2026-01-19T22:52:31Z,0.0000000,0.0000000,0.0,9999,0,0,,,,,,,WIFI,B,"02:17:1A:D6:22:12","Winegard2ghzD62211",-74,5,4,,,
2026-01-19T22:52:32Z,0.0000000,0.0000000,0.0,9999,0,0,,,,,,,WIFI,A,"02:17:1A:D6:22:12","Winegard2ghzD62211",-75,2,4,,,
2026-01-19T22:52:32Z,0.0000000,0.0000000,0.0,9999,0,0,,,,,,,WIFI,D,"02:17:1A:D6:22:12","Winegard2ghzD62211",-72,12,4,,,
2026-01-19T22:52:32Z,0.0000000,0.0000000,0.0,9999,0,0,,,,,,,BLE,M,"09:d3:99:b7:aa:af","",-84,,-127,0x0000,0x00
2026-01-19T22:52:32Z,0.0000000,0.0000000,0.0,9999,0,0,,,,,,,BLE,M,"dd:6d:84:06:3b:28","GV5179_3B28",-87,,-127,0x0000,0x03
2026-01-19T22:52:32Z,0.0000000,0.0000000,0.0,9999,0,0,,,,,,,WIFI,D,"0A:17:1A:D6:22:12","",-72,12,4,,,
2026-01-19T22:52:33Z,0.0000000,0.0000000,0.0,9999,0,0,,,,,,,BLE,M,"40:15:65:d8:da:e5","",-94,,12,0x0000,0x00
2026-01-19T22:52:33Z,0.0000000,0.0000000,0.0,9999,0,0,,,,,,,BLE,M,"40:15:65:d8:da:e5","",-93,,12,0x0000,0x00
2026-01-19T22:52:33Z,0.0000000,0.0000000,0.0,9999,0,0,,,,,,,BLE,M,"3d:55:43:33:7c:00","",-96,,-127,0x0000,0x00
2026-01-19T22:52:33Z,0.0000000,0.0000000,0.0,9999,0,0,,,,,,,WIFI,C,"02:17:1A:D6:22:12","Winegard2ghzD62211",-75,9,4,,,
2026-01-19T22:52:33Z,0.0000000,0.0000000,0.0,9999,0,0,,,,,,,WIFI,B,"02:17:1A:D6:22:12","Winegard2ghzD62211",-74,6,4,,,
2026-01-19T22:52:33Z,0.0000000,0.0000000,0.0,9999,0,0,,,,,,,WIFI,C,"0A:17:1A:D6:22:12","",-76,9,4,,,
2026-01-19T22:52:33Z,0.0000000,0.0000000,0.0,9999,0,0,,,,,,,WIFI,B,"0A:17:1A:D6:22:12","",-73,6,4,,,
2026-01-19T22:52:33Z,0.0000000,0.0000000,0.0,9999,0,0,,,,,,,BLE,M,"09:d3:99:b7:aa:af","",-94,,-127,0x0000,0x00
2026-01-19T22:52:33Z,0.0000000,0.0000000,0.0,9999,0,0,,,,,,,BLE,M,"3d:55:43:33:7c:00","",-85,,-127,0x0000,0x00
2026-01-19T22:52:33Z,0.0000000,0.0000000,0.0,9999,0,0,,,,,,,BLE,M,"40:15:65:d8:da:e5","",-92,,12,0x0000,0x00
2026-01-19T22:52:34Z,0.0000000,0.0000000,0.0,9999,0,0,,,,,,,BLE,M,"dd:6d:84:06:3b:28","GV5179_3B28",-88,,-127,0x0000,0x03
2026-01-19T22:52:34Z,0.0000000,0.0000000,0.0,9999,0,0,,,,,,,BLE,M,"09:d3:99:b7:aa:af","",-92,,-127,0x0000,0x00
2026-01-19T22:52:35Z,0.0000000,0.0000000,0.0,9999,0,0,,,,,,,WIFI,A,"02:17:1A:D6:22:12","Winegard2ghzD62211",-72,3,4,,,
2026-01-19T22:52:35Z,0.0000000,0.0000000,0.0,9999,0,0,,,,,,,WIFI,A,"0A:17:1A:D6:22:12","",-73,3,4,,,
2026-01-19T22:52:35Z,0.0000000,0.0000000,0.0,9999,0,0,,,,,,,WIFI,D,"02:17:1A:D6:22:12","Winegard2ghzD62211",-74,13,4,,,
2026-01-19T22:52:35Z,0.0000000,0.0000000,0.0,9999,0,0,,,,,,,BLE,M,"3d:55:43:33:7c:00","",-84,,-127,0x0000,0x00
2026-01-19T22:52:35Z,0.0000000,0.0000000,0.0,9999,0,0,,,,,,,BLE,M,"40:15:65:d8:da:e5","",-96,,12,0x0000,0x00
2026-01-19T22:52:35Z,0.0000000,0.0000000,0.0,9999,0,0,,,,,,,BLE,M,"3d:55:43:33:7c:00","",-94,,-127,0x0000,0x00
2026-01-19T22:52:35Z,0.0000000,0.0000000,0.0,9999,0,0,,,,,,,BLE,M,"40:15:65:d8:da:e5","",-94,,12,0x0000,0x00
2026-01-19T22:52:35Z,0.0000000,0.0000000,0.0,9999,0,0,,,,,,,BLE,M,"3d:55:43:33:7c:00","",-80,,-127,0x0000,0x00
2026-01-19T22:52:36Z,0.0000000,0.0000000,0.0,9999,0,0,,,,,,,BLE,M,"40:15:65:d8:da:e5","",-93,,12,0x0000,0x00
2026-01-19T22:52:36Z,0.0000000,0.0000000,0.0,9999,0,0,,,,,,,WIFI,C,"02:17:1A:D6:22:12","Winegard2ghzD62211",-75,10,4,,,
2026-01-19T22:52:36Z,0.0000000,0.0000000,0.0,9999,0,0,,,,,,,WIFI,B,"02:17:1A8D6:02:12","Winegard2ghzD62211",-73,7,4,,,
2026-01-19T22:52:36Z,0.0000000,0.0000000,0.0,9999,0,0,,,,,,,BLE,M,"40:15:65:d8:da:e5","",-94,,12,0x0000,0x00
2026-01-19T22:52:36Z,0.0000000,0.0000000,0.0,9999,0,0,,,,,,,BLE,M,"dd:6d:84:06:3b:28","GV5179_3B28",-86,,-127,0x0000,0x03
2026-01-19T22:52:37Z,0.0000000,0.0000000,0.0,9999,0,0,,,,,,,BLE,M,"3d:55:43:33:7c:00","",-75,,-127,0x0000,0x00
2026-01-19T22:52:37Z,0.0000000,0.0000000,0.0,9999,0,0,,,,,,,BLE,M,"7f:04:22:2b:81:4e","",-91,,-127,0x0000,0x00
2026-01-19T22:52:37Z,0.0000000,0.0000000,0.0,9999,0,0,,,,,,,WIFI,A,"02:17:1A:D6:22:12","Winegard2ghzD62211",-77,4,4,,,
2026-01-19T22:52:37Z,0.0000000,0.0000000,0.0,9999,0,0,,,,,,,WIFI,D,"02:17:1A:D6:22:12","Winegard2ghzD62211",-69,14,4,,,
2026-01-19T22:52:37Z,0.0000000,0.0000000,0.0,9999,0,0,,,,,,,BLE,M,"3d:55:43:33:7c:00","",-78,,-127,0x0000,0x00
2026-01-19T22:52:37Z,0.0000000,0.0000000,0.0,9999,0,0,,,,,,,BLE,M,"7f:04:22:2b:81:4e","",-95,,-127,0x0000,0x00
2026-01-19T22:52:37Z,0.0000000,0.0000000,0.0,9999,0,0,,,,,,,BLE,M,"3d:55:43:33:7c:00","",-75,,-127,0x0000,0x00
2026-01-19T22:52:38Z,0.0000000,0.0000000,0.0,9999,0,0,,,,,,,BLE,M,"40:15:65:d8:da:e5","",-94,,12,0x0000,0x00
2026-01-19T22:52:38Z,0.0000000,0.0000000,0.0,9999,0,0,,,,,,,WIFI,C,"02:17:1A:D6:22:12","Winegard2ghzD62211",-71,8,4,,,
2026-01-19T22:52:38Z,0.0000000,0.0000000,0.0,9999,0,0,,,,,,,WIFI,B,"02:17:1A:D6:22:12","Winegard2ghzD62211",-73,5,4,,,
2026-01-19T22:52:38Z,0.0000000,0.0000000,0.0,9999,0,0,,,,,,,BLE,M,"dd:6d:84:06:3b:28","GV5179_3B28",-86,,-127,0x0000,0x03
2026-01-19T22:52:38Z,0.0000000,0.0000000,0.0,9999,0,0,,,,,,,WIFI,C,"0A:17:1A:D6:22:12","",-73,8,4,,,
2026-01-19T22:52:38Z,0.0000000,0.0000000,0.0,9999,0,0,,,,,,,WIFI,B,"0A:17:1A:D6:22:12","",-70,5,4,,,
2026-01-19T22:52:39Z,0.0000000,0.0000000,0.0,9999,0,0,,,,,,,BLE,M,"40:15:65:d8:da:e5","",-92,,12,0x0000,0x00
2026-01-19T22:52:39Z,0.0000000,0.0000000,0.0,9999,0,0,,,,,,,BLE,M,"3d:55:43:33:7c:00","",-80,,-127,0x0000,0x00
2026-01-19T22:52:39Z,0.0000000,0.0000000,0.0,9999,0,0,,,,,,,BLE,M,"3d:55:43:33:7c:00","",-81,,-127,0x0000,0x00
2026-01-19T22:52:40Z,0.0000000,0.0000000,0.0,9999,0,0,,,,,,,BLE,M,"09:d3:99:b7:aa:af","",-90,,-127,0x0000,0x00
2026-01-19T22:52:40Z,0.0000000,0.0000000,0.0,9999,0,0,,,,,,,BLE,M,"7f:04:22:2b:81:4e","",-88,,-127,0x0000,0x00
2026-01-19T22:52:40Z,0.0000000,0.0000000,0.0,9999,0,0,,,,,,,WIFI,A,"02:17:1A:D6:22:12","Winegard2ghzD62211",-75,1,4,,,
2026-01-19T22:52:40Z,0.0000000,0.0000000,0.0,9999,0,0,,,,,,,WIFI,D,"02:17:1A:D6:22:12","Winegard2gzD62211",-75,11,4,,,
2026-01-19T22:52:40Z,0.0000000,0.0000000,0.0,9999,0,0,,,,,,,WIFI,A,"0A:17:1A:D6:22:12","",-75,1,4,,,
2026-01-19T22:52:40Z,0.0000000,0.0000000,0.0,9999,0,0,,,,,,,WIFI,D,"0A:17:1A:D6:22:12","",-74,11,4,,,
2026-01-19T22:52:40Z,0.0000000,0.0000000,0.0,9999,0,0,,,,,,,BLE,M,"7f:04:22:2b:81:4e","",-82,,-127,0x0000,0x00
2026-01-19T22:52:40Z,0.0000000,0.0000000,0.0,9999,0,0,,,,,,,BLE,M,"7f:04:22:2b:81:4e","",-81,,-127,0x0000,0x00
2026-01-19T22:52:40Z,0.0000000,0.0000000,0.0,9999,0,0,,,,,,,BLE,M,"dd:6d:84:06:3b:28","GV5179_3B28",-86,,-127,0x0000,0x03
2026-01-19T22:52:41Z,0.0000000,0.0000000,0.0,9999,0,0,,,,,,,BLE,M,"3d:55:43:33:7c:00","",-69,,-127,0x0000,0x00
2026-01-19T22:52:41Z,0.0000000,0.0000000,0.0,9999,0,0,,,,,,,BLE,M,"25:19:ce:2a:ae:6c","",-87,,-127,0x0000,0x00
2026-01-19T22:52:41Z,0.0000000,0.0000000,0.0,9999,0,0,,,,,,,BLE,M,"09:d3:99:b7:aa:af","",-80,,-127,0x0000,0x00
2026-01-19T22:52:41Z,0.0000000,0.0000000,0.0,9999,0,0,,,,,,,WIFI,C,"02:17:1A:D6:22:12","Winegard2ghzD62211",-68,9,4,,,
2026-01-19T22:52:41Z,0.0000000,0.0000000,0.0,9999,0,0,,,,,,,WIFI,B,"02:17:1A:D6:22:12","Winegard2ghzD62211",-80,6,4,,,
2026-01-19T22:52:41Z,0.0000000,0.0000000,0.0,9999,0,0,,,,,,,WIFI,B,"0A:17:1A:D6:22:12","",-78,6,4,,,
2026-01-19T22:52:41Z,0.0000000,0.0000000,0.0,9999,0,0,,,,,,,BLE,M,"3d:55:43:33:7c:00","",-65,,-127,0x0000,0x00
2026-01-19T22:52:41Z,0.0000000,0.0000000,0.0,9999,0,0,,,,,,,BLE,M,"3d:55:43:33:7c:00","",-82,,-127,0x0000,0x00
2026-01-19T22:52:42Z,0.0000000,0.0000000,0.0,9999,0,0,,,,,,,BLE,M,"25:19:ce:2a:ae:6c","",-83,,-127,0x0000,0x00
2026-01-19T22:52:42Z,0.0000000,0.0000000,0.0,9999,0,0,,,,,,,BLE,M,"09:d3:99:b7:aa:af","",-80,,-127,0x0000,0x00
2026-01-19T22:52:42Z,0.0000000,0.0000000,0.0,9999,0,0,,,,,,,WIFI,A,"02:17:1A:D6:22:12","Winegard2ghzD62211",-75,2,4,,,
2026-01-19T22:52:42Z,0.0000000,0.0000000,0.0,9999,0,0,,,,,,,WIFI,D,"02:17:1A:D6:22:12","Winegard2ghzD62211",-71,12,4,,,
2026-01-19T22:52:42Z,0.0000000,0.0000000,0.0,9999,0,0,,,,,,,WIFI,D,"0A:17:1A:D6:22:12","",-72,12,4,,,
2026-01-19T22:52:42Z,0.0000000,0.0000000,0.0,9999,0,0,,,,,,,BLE,M,"7f:04:22:2b:81:4e","",-73,,-127,0x0000,0x00
2026-01-19T22:52:42Z,0.0000000,0.0000000,0.0,9999,0,0,,,,,,,BLE,M,"7f:04:22:2b:81:4e","",-79,,-127,0x0000,0x00
2026-01-19T22:52:42Z,0.0000000,0.0000000,0.0,9999,0,0,,,,,,,BLE,M,"dd:6d:84:06:3b:28","GV5179_3B28",-84,,-127,0x0000,0x03
2026-01-19T22:52:43Z,0.0000000,0.0000000,0.0,9999,0,0,,,,,,,BLE,M,"7f:04:22:2b:81:4e","",-79,,-127,0x0000,0x00
2026-01-19T22:52:43Z,0.0000000,0.0000000,0.0,9999,0,0,,,,,,,BLE,M,"25:19:ce:2a:ae:6c","",-79,,-127,0x0000,0x00
2026-01-19T22:52:43Z,0.0000000,0.0000000,0.0,9999,0,0,,,,,,,BLE,M,"3d:55:43:33:7c:00","",-58,,-127,0x0000,0x00
2026-01-19T22:52:43Z,0.0000000,0.0000000,0.0,9999,0,0,,,,,,,BLE,M,"7f:04:22:2b:81:4e","",-75,,-127,0x0000,0x00
2026-01-19T22:52:43Z,0.0000000,0.0000000,0.0,9999,0,0,,,,,,,WIFI,C,"02:17:1A:D6:22:12","Winegard2ghzD62211",-74,10,4,,,
2026-01-19T22:52:43Z,0.0000000,0.0000000,0.0,9999,0,0,,,,,,,WIFI,C,"0A:17:1A:D6:22:12","",-74,10,4,,,
2026-01-19T22:52:43Z,0.0000000,0.0000000,0.0,9999,0,0,,,,,,,WIFI,B,"02:17:1A:D6:22:12","Winegard2ghzD62211",-73,7,4,,,
2026-01-19T22:52:43Z,0.0000000,0.0000000,0.0,9999,0,0,,,,,,,BLE,M,"3d:55:43:33:7c:00","",-59,,-127,0x0000,0x00
2026-01-19T22:52:44Z,0.0000000,0.0000000,0.0,9999,0,0,,,,,,,BLE,M,"25:19:ce:2a:ae:6c","",-73,,-127,0x0000,0x00
2026-01-19T22:52:44Z,0.0000000,0.0000000,0.0,9999,0,0,,,,,,,BLE,M,"40:15:65:d8:da:e5","",-96,,12,0x0000,0x00
2026-01-19T22:52:44Z,0.0000000,0.0000000,0.0,9999,0,0,,,,,,,WIFI,A,"02:17:1A:D6:22:12","Winegard2ghzD62211",-76,3,4,,,
2026-01-19T22:52:44Z,0.0000000,0.0000000,0.0,9999,0,0,,,,,,,WIFI,A,"0A:17:1A:D6:22:12","",-77,3,4,,,
2026-01-19T22:52:44Z,0.0000000,0.0000000,0.0,9999,0,0,,,,,,,WIFI,D,"02:17:1A:D6:22:12","Winegard2ghzD62211",-74,13,4,,,
2026-01-19T22:52:44Z,0.0000000,0.0000000,0.0,9999,0,0,,,,,,,BLE,M,"dd:6d:84:06:3b:28","GV5179_3B28",-84,,-127,0x0000,0x03
2026-01-19T22:52:45Z,0.0000000,0.0000000,0.0,9999,0,0,,,,,,,BLE,M,"7f:04:22:2b:81:4e","",-74,,-127,0x0000,0x00
2026-01-19T22:52:45Z,0.0000000,0.0000000,0.0,9999,0,0,,,,,,,BLE,M,"3d:55:43:33:7c:00","",-58,,-127,0x0000,0x00
2026-01-19T22:52:45Z,0.0000000,0.0000000,0.0,9999,0,0,,,,,,,BLE,M,"7f:04:22:2b:81:4e","",-77,,-127,0x0000,0x00
2026-01-19T22:52:45Z,0.0000000,0.0000000,0.0,9999,0,0,,,,,,,BLE,M,"3d:55:43:33:7c:00","",-63,,-127,0x0000,0x00
2026-01-19T22:52:45Z,0.0000000,0.0000000,0.0,9999,0,0,,,,,,,BLE,M,"7f:04:22:2b:81:4e","",-78,,-127,0x0000,0x00
2026-01-19T22:52:46Z,0.0000000,0.0000000,0.0,9999,0,0,,,,,,,BLE,M,"7f:04:22:2b:81:4e","",-81,,-127,0x0000,0x00
2026-01-19T22:52:46Z,0.0000000,0.0000000,0.0,9999,0,0,,,,,,,WIFI,C,"02:17:1A:D6:22:12","Winegard2ghzD62211",-76,8,4,,,
2026-01-19T22:52:46Z,0.0000000,0.0000000,0.0,9999,0,0,,,,,,,WIFI,B,"02:17:1A:D6:22:12","Winegard2ghzD62211",-78,5,4,,,
2026-01-19T22:52:46Z,0.0000000,0.0000000,0.0,9999,0,0,,,,,,,WIFI,C,"0A:17:1A:D6:22:12","",-75,8,4,,,
2026-01-19T22:52:46Z,0.0000000,0.0000000,0.0,9999,0,0,,,,,,,WIFI,B,"0A:17:1A:D6:22:12","",-78,5,4,,,
2026-01-19T22:52:46Z,0.0000000,0.0000000,0.0,9999,0,0,,,,,,,BLE,M,"40:15:65:d8:da:e5","",-96,,12,0x0000,0x00
2026-01-19T22:52:46Z,0.0000000,0.0000000,0.0,9999,0,0,,,,,,,BLE,M,"dd:6d:84:06:3b:28","GV5179_3B28",-85,,-127,0x0000,0x03
2026-01-19T22:52:47Z,0.0000000,0.0000000,0.0,9999,0,0,,,,,,,WIFI,A,"02:17:1A:D6:22:12","Winegard2ghzD62211",-72,4,4,,,
2026-01-19T22:52:47Z,0.0000000,0.0000000,0.0,9999,0,0,,,,,,,WIFI,D,"02:17:1A:D6:22:12","Wiegard2ghzD62211",-73,14,4,,,
2026-01-19T22:52:47Z,0.0000000,0.0000000,0.0,9999,0,0,,,,,,,BLE,M,"3d:55:43:33:7c:00","",-61,,-127,0x0000,0x00
2026-01-19T22:52:47Z,0.0000000,0.0000000,0.0,9999,0,0,,,,,,,BLE,M,"40:15:65:d8:da:e5","",-93,,12,0x0000,0x00
2026-01-19T22:52:47Z,0.0000000,0.0000000,0.0,9999,0,0,,,,,,,WIFI,D,"0A:17:1A:D6:22:12","",-74,14,4,,,
2026-01-19T22:52:47Z,0.0000000,0.0000000,0.0,9999,0,0,,,,,,,BLE,M,"09:d3:99:b7:aa:af","",-78,,-127,0x0000,0x00
2026-01-19T22:52:47Z,0.0000000,0.0000000,0.0,9999,0,0,,,,,,,BLE,M,"3d:55:43:33:7c:00","",-62,,-127,0x0000,0x00
2026-01-19T22:52:47Z,0.0000000,0.0000000,0.0,9999,0,0,,,,,,,BLE,M,"40:15:65:d8:da:e5","",-94,,12,0x0000,0x00
2026-01-19T22:52:47Z,0.0000000,0.0000000,0.0,9999,0,0,,,,,,,BLE,M,"3d:55:43:33:7c:00","",-58,,-127,0x0000,0x00
2026-01-19T22:52:47Z,0.0000000,0.0000000,0.0,9999,0,0,,,,,,,BLE,M,"7f:04:22:2b:81:4e","",-80,,-127,0x0000,0x00
2026-01-19T22:52:47Z,0.0000000,0.0000000,0.0,9999,0,0,,,,,,,BLE,M,"c9:e2:06:da:8d:e5","",-100,,-127,0x0000,0x00
2026-01-19T22:52:48Z,0.0000000,0.0000000,0.0,9999,0,0,,,,,,,BLE,M,"7f:04:22:2b:81:4e","",-79,,-127,0x0000,0x00
2026-01-19T22:52:48Z,0.0000000,0.0000000,0.0,9999,0,0,,,,,,,BLE,M,"09:d3:99:b7:aa:af","",-75,,-127,0x0000,0x00
2026-01-19T22:52:48Z,0.0000000,0.0000000,0.0,9999,0,0,,,,,,,BLE,M,"7f:04:22:2b:81:4e","",-80,,-127,0x0000,0x00
2026-01-19T22:52:48Z,0.0000000,0.0000000,0.0,9999,0,0,,,,,,,WIFI,C,"02:17:1A:D6:22:12","Winegard2ghzD62211",-72,9,4,,,
2026-01-19T22:52:48Z,0.0000000,0.0000000,0.0,9999,0,0,,,,,,,WIFI,B,"02:17:1A:D6:22:12","Winegard2ghzD62211",-78,6,4,,,
2026-01-19T22:52:48Z,0.0000000,0.0000000,0.0,9999,0,0,,,,,,,BLE,M,"dd:6d:84:06:3b:28","GV5179_3B28",-84,,-127,0x0000,0x03
2026-01-19T22:52:49Z,0.0000000,0.0000000,0.0,9999,0,0,,,,,,,BLE,M,"3d:55:43:33:7c:00","",-56,,-127,0x0000,0x00
2026-01-19T22:52:49Z,0.0000000,0.0000000,0.0,9999,0,0,,,,,,,BLE,M,"7b:32:e7:e5:04:b5","",-97,,0,0x0000,0x00
2026-01-19T22:52:49Z,0.0000000,0.0000000,0.0,9999,0,0,,,,,,,BLE,M,"25:19:ce:2a:ae:6c","",-79,,-127,0x0000,0x00
2026-01-19T22:52:49Z,0.0000000,0.0000000,0.0,9999,0,0,,,,,,,BLE,M,"3d:55:43:33:7c:00","",-58,,-127,0x0000,0x00
2026-01-19T22:52:49Z,0.0000000,0.0000000,0.0,9999,0,0,,,,,,,BLE,M,"09:d3:99:b7:aa:af","",-73,,-127,0x0000,0x00
2026-01-19T22:52:49Z,0.0000000,0.0000000,0.0,9999,0,0,,,,,,,BLE,M,"3d:55:43:33:7c:00","",-57,,-127,0x0000,0x00
2026-01-19T22:52:49Z,0.0000000,0.0000000,0.0,9999,0,0,,,,,,,WIFI,A,"02:17:1A:D6:22:12","Winegard2ghzD62211",-73,1,4,,,
2026-01-19T22:52:49Z,0.0000000,0.0000000,0.0,9999,0,0,,,,,,,WIFI,A,"0A:17:1A:D6:22:12","",-74,1,4,,,
2026-01-19T22:52:49Z,0.0000000,0.0000000,0.0,9999,0,0,,,,,,,WIFI,D,"02:17:1A:D6:22:12","Winegard2ghzD62211",-75,11,4,,,
2026-01-19T22:52:50Z,0.0000000,0.0000000,0.0,9999,0,0,,,,,,,BLE,M,"25:19:ce:2a:ae:6c","",-78,,-127,0x0000,0x00
2026-01-19T22:52:50Z,0.0000000,0.0000000,0.0,9999,0,0,,,,,,,BLE,M,"41:1d:e8:c8:99:5e","",-96,,12,0x0000,0x00
2026-01-19T22:52:50Z,0.0000000,0.0000000,0.0,9999,0,0,,,,,,,WIFI,C,"02:17:1A:D6:22:12","Winegard2ghzD62211",-71,10,4,,,
2026-01-19T22:52:50Z,0.0000000,0.0000000,0.0,9999,0,0,,,,,,,WIFI,B,"02:17:1A:D6:22:12","Winegard2ghzD62211",-76,7,4,,,
2026-01-19T22:52:50Z,0.0000000,0.0000000,0.0,9999,0,0,,,,,,,WIFI,B,"0A:17:1A:D6:22:12","",-75,7,4,,,
2026-01-19T22:52:50Z,0.0000000,0.0000000,0.0,9999,0,0,,,,,,,BLE,M,"7f:04:22:2b:81:4e","",-74,,-127,0x0000,0x00
2026-01-19T22:52:50Z,0.0000000,0.0000000,0.0,9999,0,0,,,,,,,BLE,M,"41:1d:e8:c8:99:5e","",-96,,12,0x0000,0x00
2026-01-19T22:52:51Z,0.0000000,0.0000000,0.0,9999,0,0,,,,,,,BLE,M,"3d:55:43:33:7c:00","",-56,,-127,0x0000,0x00
2026-01-19T22:52:51Z,0.0000000,0.0000000,0.0,9999,0,0,,,,,,,BLE,M,"7f:04:22:2b:81:4e","",-77,,-127,0x0000,0x00
2026-01-19T22:52:51Z,0.0000000,0.0000000,0.0,9999,0,0,,,,,,,BLE,M,"3d:55:43:33:7c:00","",-61,,-127,0x0000,0x00
2026-01-19T22:52:51Z,0.0000000,0.0000000,0.0,9999,0,0,,,,,,,BLE,M,"7f:04:22:2b:81:4e","",-82,,-127,0x0000,0x00
2026-01-19T22:52:51Z,0.0000000,0.0000000,0.0,9999,0,0,,,,,,,BLE,M,"41:1d:e8:c8:99:5e","",-97,,12,0x0000,0x00
2026-01-19T22:52:51Z,0.0000000,0.0000000,0.0,9999,0,0,,,,,,,BLE,M,"7f:04:22:2b:81:4e","",-82,,-127,0x0000,0x00
2026-01-19T22:52:52Z,0.0000000,0.0000000,0.0,9999,0,0,,,,,,,WIFI,A,"02:17:1A:D6:22:12","Winegard2ghzD62211",-71,2,4,,,
2026-01-19T22:52:52Z,0.0000000,0.0000000,0.0,9999,0,0,,,,,,,WIFI,D,"02:17:1A:D6:22:12","Ginegard2ghzD62211",-78,12,4,,,
2026-01-19T22:52:52Z,0.0000000,0.0000000,0.0,9999,0,0,,,,,,,WIFI,D,"0A:17:1A:D6:22:12","",-78,12,4,,,
2026-01-19T22:52:52Z,0.0000000,0.0000000,0.0,9999,0,0,,,,,,,BLE,M,"40:15:65:d8:da:e5","",-92,,12,0x0000,0x00
2026-01-19T22:52:52Z,0.0000000,0.0000000,0.0,9999,0,0,,,,,,,BLE,M,"3d:55:43:33:7c:00","",-62,,-127,0x0000,0x00
2026-01-19T22:52:52Z,0.0000000,0.0000000,0.0,9999,0,0,,,,,,,BLE,M,"7b:32:e7:e5:04:b5","",-95,,0,0x0000,0x00
2026-01-19T22:52:52Z,0.0000000,0.0000000,0.0,9999,0,0,,,,,,,BLE,M,"dd:6d:84:06:3b:28","GV5179_3B28",-82,,-127,0x0000,0x03
2026-01-19T22:52:53Z,0.0000000,0.0000000,0.0,9999,0,0,,,,,,,BLE,M,"3d:55:43:33:7c:00","",-61,,-127,0x0000,0x00
2026-01-19T22:52:53Z,0.0000000,0.0000000,0.0,9999,0,0,,,,,,,BLE,M,"3d:55:43:33:7c:00","",-61,,-127,0x0000,0x00
2026-01-19T22:52:53Z,0.0000000,0.0000000,0.0,9999,0,0,,,,,,,WIFI,C,"02:17:1A:D6:22:12","Winegard2ghzD62211",-74,8,4,,,
2026-01-19T22:52:53Z,0.0000000,0.0000000,0.0,9999,0,0,,,,,,,WIFI,C,"0A:17:1A:D6:22:12","",-75,8,4,,,
2026-01-19T22:52:53Z,0.0000000,0.0000000,0.0,9999,0,0,,,,,,,WIFI,B,"02:17:1A:D6:22:12","Winegard2ghzD62211",-76,5,4,,,
2026-01-19T22:52:53Z,0.0000000,0.0000000,0.0,9999,0,0,,,,,,,WIFI,B,"0A:17:1A:D6:22:12","",-76,5,4,,,
2026-01-19T22:52:53Z,0.0000000,0.0000000,0.0,9999,0,0,,,,,,,BLE,M,"7f:04:22:2b:81:4e","",-75,,-127,0x0000,0x00
2026-01-19T22:52:53Z,0.0000000,0.0000000,0.0,9999,0,0,,,,,,,BLE,M,"3d:55:43:33:7c:00","",-60,,-127,0x0000,0x00
2026-01-19T22:52:53Z,0.0000000,0.0000000,0.0,9999,0,0,,,,,,,BLE,M,"7f:04:22:2b:81:4e","",-76,,-127,0x0000,0x00
2026-01-19T22:52:54Z,0.0000000,0.0000000,0.0,9999,0,0,,,,,,,BLE,M,"7f:04:22:2b:81:4e","",-78,,-127,0x0000,0x00
2026-01-19T22:52:54Z,0.0000000,0.0000000,0.0,9999,0,0,,,,,,,WIFI,A,"02:17:1A:D6:22:12","Winegard2ghzD62211",-74,3,4,,,
2026-01-19T22:52:54Z,0.0000000,0.0000000,0.0,9999,0,0,,,,,,,BLE,M,"7f:04:22:2b:81:4e","",-79,,-127,0x0000,0x00
2026-01-19T22:52:54Z,0.0000000,0.0000000,0.0,9999,0,0,,,,,,,WIFI,A,"0A:17:1A:D6:22:12","",-73,3,4,,,
2026-01-19T22:52:54Z,0.0000000,0.0000000,0.0,9999,0,0,,,,,,,WIFI,D,"02:17:1A:D6:22:12","Winegard2ghzD62211",-77,13,4,,,
2026-01-19T22:52:54Z,0.0000000,0.0000000,0.0,9999,0,0,,,,,,,BLE,M,"09:d3:99:b7:aa:af","",-76,,-127,0x0000,0x00
2026-01-19T22:52:54Z,0.0000000,0.0000000,0.0,9999,0,0,,,,,,,BLE,M,"3d:55:43:33:7c:00","",-62,,-127,0x0000,0x00
2026-01-19T22:52:54Z,0.0000000,0.0000000,0.0,9999,0,0,,,,,,,BLE,M,"eb:fb:fe:d2:00:91","",-96,,-127,0x0000,0x00
2026-01-19T22:52:54Z,0.0000000,0.0000000,0.0,9999,0,0,,,,,,,BLE,M,"dd:6d:84:06:3b:28","GV5179_3B28",-84,,-127,0x0000,0x03
2026-01-19T22:52:55Z,0.0000000,0.0000000,0.0,9999,0,0,,,,,,,BLE,M,"3d:55:43:33:7c:00","",-60,,-127,0x0000,0x00
2026-01-19T22:52:55Z,0.0000000,0.0000000,0.0,9999,0,0,,,,,,,BLE,M,"3d:55:43:33:7c:00","",-62,,-127,0x0000,0x00
2026-01-19T22:52:55Z,0.0000000,0.0000000,0.0,9999,0,0,,,,,,,BLE,M,"09:d3:99:b7:aa:af","",-81,,-127,0x0000,0x00
2026-01-19T22:52:55Z,0.0000000,0.0000000,0.0,9999,0,0,,,,,,,BLE,M,"3d:55:43:33:7c:00","",-70,,-127,0x0000,0x00
2026-01-19T22:52:55Z,0.0000000,0.0000000,0.0,9999,0,0,,,,,,,WIFI,C,"02:17:1A:D6:22:12","Winegard2ghzD62211",-76,9,4,,,
2026-01-19T22:52:55Z,0.0000000,0.0000000,0.0,9999,0,0,,,,,,,WIFI,C,"0A:17:1A:D6:22:12","",-77,9,4,,,
2026-01-19T22:52:55Z,0.0000000,0.0000000,0.0,9999,0,0,,,,,,,WIFI,B,"02:17:1A:D6:22:12","Winegard2ghzD62211",-74,6,4,,,
2026-01-19T22:52:56Z,0.0000000,0.0000000,0.0,9999,0,0,,,,,,,BLE,M,"7f:04:22:2b:81:4e","",-83,,-127,0x0000,0x00
2026-01-19T22:52:56Z,0.0000000,0.0000000,0.0,9999,0,0,,,,,,,BLE,M,"25:19:ce:2a:ae:6c","",-83,,-127,0x0000,0x00
2026-01-19T22:52:56Z,0.0000000,0.0000000,0.0,9999,0,0,,,,,,,BLE,M,"7f:04:22:2b:81:4e","",-83,,-127,0x0000,0x00
2026-01-19T22:52:56Z,0.0000000,0.0000000,0.0,9999,0,0,,,,,,,BLE,M,"09:d3:99:b7:aa:af","",-76,,-127,0x0000,0x00
2026-01-19T22:52:56Z,0.0000000,0.0000000,0.0,9999,0,0,,,,,,,WIFI,A,"02:17:1A:D6:22:12","Winegard2ghzD62211",-69,4,4,,,
2026-01-19T22:52:56Z,0.0000000,0.0000000,0.0,9999,0,0,,,,,,,WIFI,D,"02:17:1A:D6:22:12","Winegard2ghzD62211",-78,14,4,,,
2026-01-19T22:52:56Z,0.0000000,0.0000000,0.0,9999,0,0,,,,,,,WIFI,D,"0A:17:1A:D6:22:12","",-78,14,4,,,
2026-01-19T22:52:56Z,0.0000000,0.0000000,0.0,9999,0,0,,,,,,,BLE,M,"3d:55:43:33:7c:00","",-62,,-127,0x0000,0x00
2026-01-19T22:52:56Z,0.0000000,0.0000000,0.0,9999,0,0,,,,,,,BLE,M,"7f:04:22:2b:81:4e","",-84,,-127,0x0000,0x00
2026-01-19T22:52:56Z,0.0000000,0.0000000,0.0,9999,0,0,,,,,,,BLE,M,"dd:6d:84:06:3b:28","GV5179_3B28",-82,,-127,0x0000,0x03
2026-01-19T22:52:57Z,0.0000000,0.0000000,0.0,9999,0,0,,,,,,,BLE,M,"3d:55:43:33:7c:00","",-64,,-127,0x0000,0x00
2026-01-19T22:52:57Z,0.0000000,0.0000000,0.0,9999,0,0,,,,,,,BLE,M,"7f:04:22:2b:81:4e","",-85,,-127,0x0000,0x00
2026-01-19T22:52:57Z,0.0000000,0.0000000,0.0,9999,0,0,,,,,,,BLE,M,"3d:55:43:33:7c:00","",-64,,-127,0x0000,0x00
2026-01-19T22:52:57Z,0.0000000,0.0000000,0.0,9999,0,0,,,,,,,BLE,M,"7f:04:22:2b:81:4e","",-85,,-127,0x0000,0x00
2026-01-19T22:52:57Z,0.0000000,0.0000000,0.0,9999,0,0,,,,,,,BLE,M,"25:19:ce:2a:ae:6c","",-86,,-127,0x0000,0x00
2026-01-19T22:52:57Z,0.0000000,0.0000000,0.0,9999,0,0,,,,,,,BLE,M,"40:15:65:d8:da:e5","",-92,,12,0x0000,0x00
2026-01-19T22:52:58Z,0.0000000,0.0000000,0.0,9999,0,0,,,,,,,BLE,M,"40:15:65:d8:da:e5","",-94,,12,0x0000,0x00
2026-01-19T22:52:58Z,0.0000000,0.0000000,0.0,9999,0,0,,,,,,,WIFI,C,"02:17:1A:D6:22:12","Winegard2ghzD62211",-72,10,4,,,
2026-01-19T22:52:58Z,0.0000000,0.0000000,0.0,9999,0,0,,,,,,,WIFI,B,"02:17:1A:D6:22:12","Winegard2ghzD62211",-76,7,4,,,
2026-01-19T22:52:58Z,0.0000000,0.0000000,0.0,9999,0,0,,,,,,,BLE,M,"25:19:ce:2a:ae:6c","",-90,,-127,0x0000,0x00
2026-01-19T22:52:58Z,0.0000000,0.0000000,0.0,9999,0,0,,,,,,,BLE,M,"3d:55:43:33:7c:00","",-62,,-127,0x0000,0x00
2026-01-19T22:52:58Z,0.0000000,0.0000000,0.0,9999,0,0,,,,,,,BLE,M,"dd:6d:84:06:3b:28","GV5179_3B28",-81,,-127,0x0000,0x03
2026-01-19T22:52:59Z,0.0000000,0.0000000,0.0,9999,0,0,,,,,,,BLE,M,"7f:04:22:2b:81:4e","",-83,,-127,0x0000,0x00
2026-01-19T22:52:59Z,0.0000000,0.0000000,0.0,9999,0,0,,,,,,,BLE,M,"3d:55:43:33:7c:00","",-62,,-127,0x0000,0x00
2026-01-19T22:52:59Z,0.0000000,0.0000000,0.0,9999,0,0,,,,,,,BLE,M,"7f:04:22:2b:81:4e","",-82,,-127,0x0000,0x00
2026-01-19T22:52:59Z,0.0000000,0.0000000,0.0,9999,0,0,,,,,,,BLE,M,"3d:55:43:33:7c:00","",-65,,-127,0x0000,0x00
2026-01-19T22:52:59Z,0.0000000,0.0000000,0.0,9999,0,0,,,,,,,WIFI,A,"02:17:1A:D6:22:12","Winegard2ghzD62211",-72,1,4,,,
2026-01-19T22:52:59Z,0.0000000,0.0000000,0.0,9999,0,0,,,,,,,WIFI,A,"0A:17:1A:D6:22:12","",-72,1,4,,,
2026-01-19T22:52:59Z,0.0000000,0.0000000,0.0,9999,0,0,,,,,,,WIFI,D,"02:17:1A:D6:22:12","Winegard2ghzD62211",-71,11,4,,,
2026-01-19T22:52:59Z,0.0000000,0.0000000,0.0,9999,0,0,,,,,,,WIFI,D,"0A:17:1A:D6:22:12","",-74,11,4,,,
2026-01-19T22:52:59Z,0.0000000,0.0000000,0.0,9999,0,0,,,,,,,BLE,M,"7f:04:22:2b:81:4e","",-82,,-127,0x0000,0x00
2026-01-19T22:52:59Z,0.0000000,0.0000000,0.0,9999,0,0,,,,,,,BLE,M,"7f:04:22:2b:81:4e","",-82,,-127,0x0000,0x00
2026-01-19T22:53:00Z,0.0000000,0.0000000,0.0,363,4,0,,,,,,,BLE,M,"41:1d:e8:c8:99:5e","",-98,,12,0x0000,0x00
2026-01-19T22:53:00Z,0.0000000,0.0000000,0.0,363,4,0,,,,,,,WIFI,C,"02:17:1A:D6:22:12","Winegard2ghzD62211",-73,8,4,,,
2026-01-19T22:53:00Z,0.0000000,0.0000000,0.0,363,4,0,,,,,,,WIFI,B,"02:17:1A:D6:22:12","Winegard2ghzD62211",-72,5,4,,,
2026-01-19T22:53:00Z,0.0000000,0.0000000,0.0,363,4,0,,,,,,,BLE,M,"3d:55:43:33:7c:00","",-60,,-127,0x0000,0x00
2026-01-19T22:53:00Z,0.0000000,0.0000000,0.0,363,4,0,,,,,,,BLE,M,"dd:6d:84:06:3b:28","GV5179_3B28",-84,,-127,0x0000,0x03
2026-01-19T22:53:01Z,0.0000000,0.0000000,0.0,363,4,0,,,,,,,WIFI,C,"0A:17:1A:D6:22:12","",-72,8,4,,,
2026-01-19T22:53:01Z,0.0000000,0.0000000,0.0,363,4,0,,,,,,,WIFI,B,"0A:17:1A:D6:22:12","",-71,5,4,,,
2026-01-19T22:53:01Z,0.0000000,0.0000000,0.0,363,4,0,,,,,,,BLE,M,"3d:55:43:33:7c:00","",-60,,-127,0x0000,0x00
2026-01-19T22:53:01Z,0.0000000,0.0000000,0.0,363,4,0,,,,,,,BLE,M,"40:15:65:d8:da:e5","",-95,,12,0x0000,0x00
2026-01-19T22:53:01Z,0.0000000,0.0000000,0.0,363,4,0,,,,,,,WIFI,A,"02:17:1A:D6:22:12","Winegard2ghzD62211",-70,2,4,,,
2026-01-19T22:53:01Z,0.0000000,0.0000000,0.0,363,4,0,,,,,,,WIFI,D,"02:17:1A:D6:22:12","Winegard2ghzD62211",-71,12,4,,,
2026-01-19T22:53:01Z,0.0000000,0.0000000,0.0,363,4,0,,,,,,,BLE,M,"7f:04:22:2b:81:4e","",-76,,-127,0x0000,0x00
2026-01-19T22:53:02Z,35.4581938,-78.9013607,114.4,363,4,1,,,,,,,BLE,M,"7f:04:22:2b:81:4e","",-76,,-127,0x0000,0x00
2026-01-19T22:53:02Z,35.4581938,-78.9013607,114.4,363,4,1,,,,,,,BLE,M,"7f:04:22:2b:81:4e","",-77,,-127,0x0000,0x00
2026-01-19T22:53:02Z,35.4581938,-78.9013607,114.4,363,4,1,,,,,,,BLE,M,"3d:55:43:33:7c:00","",-61,,-127,0x0000,0x00
2026-01-19T22:53:02Z,35.4581938,-78.9013607,114.4,363,4,1,,,,,,,BLE,M,"7f:04:22:2b:81:4e","",-78,,-127,0x0000,0x00
2026-01-19T22:53:02Z,35.4581938,-78.9013607,114.4,363,4,1,,,,,,,BLE,M,"25:19:ce:2a:ae:6c","",-79,,-127,0x0000,0x00
2026-01-19T22:53:02Z,35.4581938,-78.9013607,114.4,363,4,1,,,,,,,BLE,M,"09:d3:99:b7:aa:af","",-77,,-127,0x0000,0x00
2026-01-19T22:53:02Z,35.4581938,-78.9013607,114.4,363,4,1,,,,,,,BLE,M,"3d:55:43:33:7c:00","",-57,,-127,0x0000,0x00
2026-01-19T22:53:03Z,35.4582065,-78.9013743,115.0,363,4,1,,,,,,,WIFI,C,"02:17:1A:D6:22:12","Winegard2ghzD62211",-73,9,4,,,
2026-01-19T22:53:03Z,35.4582065,-78.9013743,115.0,363,4,1,,,,,,,WIFI,B,"02:17:1A:D6:22:12","Winegard2ghzD62211",-75,6,4,,,
2026-01-19T22:53:03Z,35.4582065,-78.9013743,115.0,363,4,1,,,,,,,WIFI,B,"0A:17:1A:D6:22:12","",-74,6,4,,,
2026-01-19T22:53:03Z,35.4582065,-78.9013743,115.0,363,4,1,,,,,,,BLE,M,"25:19:ce:2a:ae:6c","",-74,,-127,0x0000,0x00
2026-01-19T22:53:03Z,35.4582065,-78.9013743,115.0,363,4,1,,,,,,,BLE,M,"09:d3:99:b7:aa:af","",-77,,-127,0x0000,0x00
2026-01-19T22:53:04Z,35.4582193,-78.9013870,115.0,363,4,1,,,,,,,WIFI,A,"02:17:1A:D6:22:12","Winegard2ghzD62211",-75,3,4,,,
2026-01-19T22:53:04Z,35.4582193,-78.9013870,115.4,363,4,1,,,,,,,WIFI,A,"0A:17:1A:D6:22:12","",-77,3,4,,,
2026-01-19T22:53:04Z,35.4582193,-78.9013870,115.4,363,4,1,,,,,,,BLE,M,"4e:d3:38:72:90:c2","",-67,,-127,0x0000,0x00
2026-01-19T22:53:04Z,35.4582193,-78.9013870,115.4,363,4,1,,,,,,,BLE,M,"3d:55:43:33:7c:00","",-57,,-127,0x0000,0x00
2026-01-19T22:53:04Z,35.4582193,-78.9013870,115.4,363,4,1,,,,,,,BLE,M,"26:ed:ab:54:e4:4d","",-64,,-127,0x0000,0x00
2026-01-19T22:53:04Z,35.4582193,-78.9013870,115.4,363,4,1,,,,,,,BLE,M,"4e:d3:38:72:90:c2","",-75,,-127,0x0000,0x00
2026-01-19T22:53:04Z,35.4582193,-78.9013870,115.4,363,4,1,,,,,,,BLE,M,"7f:04:22:2b:81:4e","",-73,,-127,0x0000,0x00
2026-01-19T22:53:04Z,35.4582193,-78.9013870,115.4,363,4,1,,,,,,,BLE,M,"3d:55:43:33:7c:00","",-58,,-127,0x0000,0x00
2026-01-19T22:53:04Z,35.4582193,-78.9013870,115.4,363,4,1,,,,,,,BLE,M,"26:ed:ab:54:e4:4d","",-67,,-127,0x0000,0x00
2026-01-19T22:53:04Z,35.4582193,-78.9013870,115.4,363,4,1,,,,,,,BLE,M,"4e:d3:38:72:90:c2","",-77,,-127,0x0000,0x00
2026-01-19T22:53:04Z,35.4582193,-78.9013870,115.4,363,4,1,,,,,,,BLE,M,"7f:04:22:2b:81:4e","",-73,,-127,0x0000,0x00
2026-01-19T22:53:04Z,35.4582193,-78.9013870,115.4,363,4,1,,,,,,,BLE,M,"25:19:ce:2a:ae:6c","",-73,,-127,0x0000,0x00
2026-01-19T22:53:04Z,35.4582193,-78.9013870,115.4,363,4,1,,,,,,,BLE,M,"3d:55:43:33:7c:00","",-58,,-127,0x0000,0x00
2026-01-19T22:53:04Z,35.4582193,-78.9013870,115.4,363,4,1,,,,,,,BLE,M,"26:ed:ab:54:e4:4d","",-64,,-127,0x0000,0x00
2026-01-19T22:53:04Z,35.4582193,-78.9013870,115.4,363,4,1,,,,,,,BLE,M,"4e:d3:38:72:90:c2","",-71,,-127,0x0000,0x00
2026-01-19T22:53:04Z,35.4582193,-78.9013870,115.4,363,4,1,,,,,,,BLE,M,"dd:6d:84:06:3b:28","GV5179_3B28",-87,,-127,0x0000,0x03
2026-01-19T22:53:05Z,35.4582337,-78.9013982,115.7,363,4,1,,,,,,,BLE,M,"4e:d3:38:72:90:c2","",-74,,-127,0x0000,0x00
2026-01-19T22:53:05Z,35.4582337,-78.9013982,115.7,363,4,1,,,,,,,BLE,M,"7f:04:22:2b:81:4e","",-73,,-127,0x0000,0x00
2026-01-19T22:53:05Z,35.4582337,-78.9013982,115.7,363,4,1,,,,,,,BLE,M,"3d:55:43:33:7c:00","",-60,,-127,0x0000,0x00
2026-01-19T22:53:05Z,35.4582337,-78.9013982,115.7,363,4,1,,,,,,,BLE,M,"26:ed:ab:54:e4:4d","",-64,,-127,0x0000,0x00
2026-01-19T22:53:05Z,35.4582337,-78.9013982,115.7,363,4,1,,,,,,,BLE,M,"4e:d3:38:72:90:c2","",-76,,-127,0x0000,0x00
2026-01-19T22:53:05Z,35.4582337,-78.9013982,115.7,363,4,1,,,,,,,WIFI,C,"02:17:1A:D6:22:12","Winegard2ghzD62211",-79,10,4,,,
2026-01-19T22:53:05Z,35.4582337,-78.9013982,115.7,363,4,1,,,,,,,WIFI,C,"0A:17:1A:D6:22:12","",-78,10,4,,,
2026-01-19T22:53:05Z,35.4582337,-78.9013982,115.7,363,4,1,,,,,,,WIFI,B,"02:17:1A:D6:22:12","Winegard2ghzD62211",-77,7,4,,,
2026-01-19T22:53:05Z,35.4582337,-78.9013982,115.7,363,4,1,,,,,,,BLE,M,"4e:d3:38:72:90:c2","",-75,,-127,0x0000,0x00
2026-01-19T22:53:05Z,35.4582337,-78.9013982,115.7,363,4,1,,,,,,,BLE,M,"7f:04:22:2b:81:4e","",-76,,-127,0x0000,0x00
2026-01-19T22:53:05Z,35.4582337,-78.9013982,115.7,363,4,1,,,,,,,BLE,M,"40:15:65:d8:da:e5","",-95,,12,0x0000,0x00
2026-01-19T22:53:05Z,35.4582337,-78.9013982,115.7,363,4,1,,,,,,,BLE,M,"4e:d3:38:72:90:c2","",-71,,-127,0x0000,0x00
2026-01-19T22:53:05Z,35.4582337,-78.9013982,115.7,363,4,1,,,,,,,BLE,M,"25:19:ce:2a:ae:6c","",-77,,-127,0x0000,0x00
2026-01-19T22:53:06Z,35.4582447,-78.9014172,115.8,363,4,1,,,,,,,WIFI,A,"02:17:1A:D6:22:12","Winegard2ghzD62211",-76,4,4,,,
2026-01-19T22:53:06Z,35.4582447,-78.9014172,115.8,363,4,1,,,,,,,BLE,M,"3d:55:43:33:7c:00","",-61,,-127,0x0000,0x00
2026-01-19T22:53:06Z,35.4582447,-78.9014172,115.8,363,4,1,,,,,,,BLE,M,"26:ed:ab:54:e4:4d","",-73,,-127,0x0000,0x00
2026-01-19T22:53:06Z,35.4582447,-78.9014172,115.8,363,4,1,,,,,,,BLE,M,"40:15:65:d8:da:e5","",-87,,12,0x0000,0x00
2026-01-19T22:53:06Z,35.4582447,-78.9014172,115.8,363,4,1,,,,,,,BLE,M,"26:ed:ab:54:e4:4d","",-73,,-127,0x0000,0x00
2026-01-19T22:53:06Z,35.4582447,-78.9014172,115.8,363,4,1,,,,,,,BLE,M,"3d:55:43:33:7c:00","",-56,,-127,0x0000,0x00
2026-01-19T22:53:06Z,35.4582447,-78.9014172,115.8,363,4,1,,,,,,,BLE,M,"3d:55:43:33:7c:00","",-60,,-127,0x0000,0x00
2026-01-19T22:53:06Z,35.4582447,-78.9014172,115.8,363,4,1,,,,,,,BLE,M,"26:ed:ab:54:e4:4d","",-71,,-127,0x0000,0x00
2026-01-19T22:53:07Z,35.4582570,-78.9014372,115.5,363,4,1,,,,,,,BLE,M,"7f:04:22:2b:81:4e","",-76,,-127,0x0000,0x00
2026-01-19T22:53:07Z,35.4582570,-78.9014372,115.5,363,4,1,,,,,,,BLE,M,"7f:04:22:2b:81:4e","",-77,,-127,0x0000,0x00
2026-01-19T22:53:08Z,35.4582640,-78.9014538,115.8,363,4,1,,,,,,,BLE,M,"40:15:65:d8:da:e5","",-94,,12,0x0000,0x00
2026-01-19T22:53:08Z,35.4582640,-78.9014538,115.8,363,4,1,,,,,,,BLE,M,"7f:04:22:2b:81:4e","",-76,,-127,0x0000,0x00
2026-01-19T22:53:08Z,35.4582640,-78.9014538,115.8,363,4,1,,,,,,,WIFI,C,"02:17:1A:D6:22:12","Winegard2ghzD62211",-81,8,4,,,
2026-01-19T22:53:08Z,35.4582640,-78.9014538,115.8,363,4,1,,,,,,,WIFI,C,"0A:17:1A:D6:22:12","",-80,8,4,,,
2026-01-19T22:53:08Z,35.4582640,-78.9014538,115.8,363,4,1,,,,,,,WIFI,B,"0A:17:1A:D6:22:12","",-74,5,4,,,
2026-01-19T22:53:08Z,35.4582640,-78.9014538,115.8,363,4,1,,,,,,,BLE,M,"3d:55:43:33:7c:00","",-61,,-127,0x0000,0x00
2026-01-19T22:53:08Z,35.4582640,-78.9014538,115.8,363,4,1,,,,,,,BLE,M,"26:ed:ab:54:e4:4d","",-66,,-127,0x0000,0x00
2026-01-19T22:53:08Z,35.4582640,-78.9014538,115.8,363,4,1,,,,,,,BLE,M,"7f:04:22:2b:81:4e","",-77,,-127,0x0000,0x00
2026-01-19T22:53:08Z,35.4582640,-78.9014538,115.8,363,4,1,,,,,,,BLE,M,"de:b4:fa:ed:7e:2f","",-93,,-127,0x0000,0x01
2026-01-19T22:53:08Z,35.4582640,-78.9014538,115.8,363,4,1,,,,,,,BLE,M,"26:ed:ab:54:e4:4d","",-65,,-127,0x0000,0x00
2026-01-19T22:53:08Z,35.4582640,-78.9014538,115.8,363,4,1,,,,,,,BLE,M,"3d:55:43:33:7c:00","",-57,,-127,0x0000,0x00
2026-01-19T22:53:08Z,35.4582640,-78.9014538,115.8,363,4,1,,,,,,,WIFI,D,"02:17:1A:D6:22:12","Winegard2ghzD62211",-78,11,4,,,
2026-01-19T22:53:08Z,35.4582640,-78.9014538,115.8,363,4,1,,,,,,,BLE,M,"26:ed:ab:54:e4:4d","",-72,,-127,0x0000,0x00
2026-01-19T22:53:08Z,35.4582640,-78.9014538,115.8,363,4,1,,,,,,,BLE,M,"3d:55:43:33:7c:00","",-57,,-127,0x0000,0x00
2026-01-19T22:53:09Z,35.4582738,-78.9014695,115.8,363,4,1,,,,,,,WIFI,A,"02:17:1A:D6:22:12","Winegard2ghzD62211",-77,1,4,,,
2026-01-19T22:53:09Z,35.4582738,-78.9014695,115.7,363,4,1,,,,,,,WIFI,A,"0A:17:1A:D6:22:12","",-75,1,4,,,
2026-01-19T22:53:09Z,35.4582738,-78.9014695,115.7,363,4,1,,,,,,,BLE,M,"de:b4:fa:ed:7e:2f","",-95,,-127,0x0000,0x01
2026-01-19T22:53:09Z,35.4582738,-78.9014695,115.7,363,4,1,,,,,,,BLE,M,"40:15:65:d8:da:e5","",-89,,12,0x0000,0x00
2026-01-19T22:53:09Z,35.4582738,-78.9014695,115.7,363,4,1,,,,,,,BLE,M,"f7:05:ff:20:82:fe","",-90,,-127,0x0000,0x00
2026-01-19T22:53:10Z,35.4582865,-78.9014867,115.1,363,4,1,,,,,,,BLE,M,"25:19:ce:2a:ae:6c","",-76,,-127,0x0000,0x00
2026-01-19T22:53:10Z,35.4582865,-78.9014867,115.1,363,4,1,,,,,,,BLE,M,"26:ed:ab:54:e4:4d","",-63,,-127,0x0000,0x00
2026-01-19T22:53:10Z,35.4582865,-78.9014867,115.1,363,4,1,,,,,,,BLE,M,"70:5e:07:83:be:4a","",-97,,0,0x0000,0x00
2026-01-19T22:53:10Z,35.4582865,-78.9014867,115.1,363,4,1,,,,,,,BLE,M,"de:b4:fa:ed:7e:2f","",-94,,-127,0x0000,0x01
2026-01-19T22:53:10Z,35.4582865,-78.9014867,115.1,363,4,1,,,,,,,BLE,M,"69:b1:5c:b1:0d:46","",-93,,12,0x0000,0x00
2026-01-19T22:53:10Z,35.4582865,-78.9014867,115.1,363,4,1,,,,,,,BLE,M,"3d:55:43:33:7c:00","",-55,,-127,0x0000,0x00
2026-01-19T22:53:10Z,35.4582865,-78.9014867,115.1,363,4,1,,,,,,,BLE,M,"26:ed:ab:54:e4:4d","",-76,,-127,0x0000,0x00
2026-01-19T22:53:10Z,35.4582865,-78.9014867,115.1,363,4,1,,,,,,,BLE,M,"7f:04:22:2b:81:4e","",-77,,-127,0x0000,0x00
2026-01-19T22:53:10Z,35.4582865,-78.9014867,115.1,363,4,1,,,,,,,WIFI,C,"02:17:1A:D6:22:12","Winegard2ghzD62211",-73,9,4,,,
2026-01-19T22:53:10Z,35.4582865,-78.9014867,115.1,363,4,1,,,,,,,WIFI,B,"02:17:1A:D6:22:12","Winegard2ghzD62211",-74,6,4,,,
2026-01-19T22:53:10Z,35.4582865,-78.9014867,115.1,363,4,1,,,,,,,WIFI,B,"0A:17:1A:D6:22:12","",-77,6,4,,,
2026-01-19T22:53:10Z,35.4582865,-78.9014867,115.1,363,4,1,,,,,,,BLE,M,"69:b1:5c:b1:0d:46","",-92,,12,0x0000,0x00
2026-01-19T22:53:10Z,35.4582865,-78.9014867,115.1,363,4,1,,,,,,,BLE,M,"7f:04:22:2b:81:4e","",-76,,-127,0x0000,0x00
2026-01-19T22:53:10Z,35.4582865,-78.9014867,115.1,363,4,1,,,,,,,BLE,M,"26:ed:ab:54:e4:4d","",-83,,-127,0x0000,0x00
2026-01-19T22:53:10Z,35.4582865,-78.9014867,115.1,363,4,1,,,,,,,BLE,M,"70:5e:07:83:be:4a","",-96,,0,0x0000,0x00
2026-01-19T22:53:10Z,35.4582865,-78.9014867,115.1,363,4,1,,,,,,,BLE,M,"69:b1:5c:b1:0d:46","",-91,,12,0x0000,0x00
2026-01-19T22:53:10Z,35.4582865,-78.9014867,115.1,363,4,1,,,,,,,BLE,M,"3d:55:43:33:7c:00","",-58,,-127,0x0000,0x00
2026-01-19T22:53:10Z,35.4582865,-78.9014867,115.1,363,4,1,,,,,,,BLE,M,"7f:04:22:2b:81:4e","",-74,,-127,0x0000,0x00
2026-01-19T22:53:10Z,35.4582865,-78.9014867,115.1,363,4,1,,,,,,,BLE,M,"26:ed:ab:54:e4:4d","",-72,,-127,0x0000,0x00
2026-01-19T22:53:11Z,35.4582963,-78.9015125,113.3,363,4,1,,,,,,,BLE,M,"25:19:ce:2a:ae:6c","",-75,,-127,0x0000,0x00
2026-01-19T22:53:11Z,35.4582963,-78.9015125,113.3,363,4,1,,,,,,,BLE,M,"69:b1:5c:b1:0d:46","",-94,,12,0x0000,0x00
2026-01-19T22:53:11Z,35.4582963,-78.9015125,113.3,363,4,1,,,,,,,BLE,M,"7f:04:22:2b:81:4e","",-75,,-127,0x0000,0x00
2026-01-19T22:53:11Z,35.4582963,-78.9015125,113.3,363,4,1,,,,,,,BLE,M,"3d:55:43:33:7c:00","",-60,,-127,0x0000,0x00
2026-01-19T22:53:11Z,35.4582963,-78.9015125,113.3,363,4,1,,,,,,,WIFI,D,"02:17:1A:D6:22:12","Winegard2ghzD62211",-73,12,4,,,
2026-01-19T22:53:11Z,35.4582963,-78.9015125,113.3,363,4,1,,,,,,,WIFI,A,"02:17:1A:D6:22:12","Winegard2ghzD62211",-69,2,4,,,
2026-01-19T22:53:11Z,35.4582963,-78.9015125,113.3,363,4,1,,,,,,,BLE,M,"40:15:65:d8:da:e5","",-88,,12,0x0000,0x00
2026-01-19T22:53:11Z,35.4582963,-78.9015125,113.3,363,4,1,,,,,,,BLE,M,"de:b4:fa:ed:7e:2f","",-90,,-127,0x0000,0x01
2026-01-19T22:53:11Z,35.4582963,-78.9015125,113.3,363,4,1,,,,,,,BLE,M,"f7:05:ff:20:82:fe","",-98,,-127,0x0000,0x00
2026-01-19T22:53:11Z,35.4582963,-78.9015125,113.3,363,4,1,,,,,,,BLE,M,"40:15:65:d8:da:e5","",-97,,12,0x0000,0x00
2026-01-19T22:53:12Z,35.4582810,-78.9015378,116.1,363,4,1,,,,,,,BLE,M,"25:19:ce:2a:ae:6c","",-75,,-127,0x0000,0x00
2026-01-19T22:53:12Z,35.4582810,-78.9015378,116.1,363,4,1,,,,,,,BLE,M,"40:15:65:d8:da:e5","",-93,,12,0x0000,0x00
2026-01-19T22:53:12Z,35.4582810,-78.9015378,116.1,363,4,1,,,,,,,BLE,M,"e8:f5:c7:c3:48:b6","",-92,,-127,0x0000,0x01
2026-01-19T22:53:12Z,35.4582810,-78.9015378,116.1,363,4,1,,,,,,,BLE,M,"26:ed:ab:54:e4:4d","",-72,,-127,0x0000,0x00
2026-01-19T22:53:12Z,35.4582810,-78.9015378,116.1,363,4,1,,,,,,,BLE,M,"de:b4:fa:ed:7e:2f","",-94,,-127,0x0000,0x01
2026-01-19T22:53:12Z,35.4582810,-78.9015378,116.1,363,4,1,,,,,,,BLE,M,"3d:55:43:33:7c:00","",-60,,-127,0x0000,0x00
2026-01-19T22:53:12Z,35.4582810,-78.9015378,116.1,363,4,1,,,,,,,BLE,M,"26:ed:ab:54:e4:4d","",-78,,-127,0x0000,0x00
2026-01-19T22:53:12Z,35.4582810,-78.9015378,116.1,363,4,1,,,,,,,WIFI,C,"02:17:1A:D6:22:12","Winegard2ghzD62211",-72,10,4,,,
2026-01-19T22:53:12Z,35.4582810,-78.9015378,116.1,363,4,1,,,,,,,BLE,M,"69:b1:5c:b1:0d:46","",-94,,12,0x0000,0x00
2026-01-19T22:53:12Z,35.4582810,-78.9015378,116.1,363,4,1,,,,,,,BLE,M,"7f:04:22:2b:81:4e","",-75,,-127,0x0000,0x00
2026-01-19T22:53:12Z,35.4582810,-78.9015378,116.1,363,4,1,,,,,,,BLE,M,"41:1d:e8:c8:99:5e","",-96,,12,0x0000,0x00
2026-01-19T22:53:12Z,35.4582810,-78.9015378,116.1,363,4,1,,,,,,,BLE,M,"3d:55:43:33:7c:00","",-60,,-127,0x0000,0x00
2026-01-19T22:53:12Z,35.4582810,-78.9015378,116.1,363,4,1,,,,,,,BLE,M,"26:ed:ab:54:e4:4d","",-66,,-127,0x0000,0x00
2026-01-19T22:53:12Z,35.4582810,-78.9015378,116.1,363,4,1,,,,,,,WIFI,B,"02:17:1A:D6:22:12","Winegard2ghzD62211",-70,7,4,,,
2026-01-19T22:53:13Z,35.4582792,-78.9015750,115.8,363,4,1,,,,,,,BLE,M,"69:b1:5c:b1:0d:46","",-94,,12,0x0000,0x00
2026-01-19T22:53:13Z,35.4582792,-78.9015750,115.8,363,4,1,,,,,,,BLE,M,"7f:04:22:2b:81:4e","",-75,,-127,0x0000,0x00
2026-01-19T22:53:13Z,35.4582792,-78.9015750,115.8,363,4,1,,,,,,,BLE,M,"25:19:ce:2a:ae:6c","",-73,,-127,0x0000,0x00
2026-01-19T22:53:13Z,35.4582792,-78.9015750,115.8,363,4,1,,,,,,,BLE,M,"3d:55:43:33:7c:00","",-59,,-127,0x0000,0x00
2026-01-19T22:53:13Z,35.4582792,-78.9015750,115.8,363,4,1,,,,,,,BLE,M,"7f:04:22:2b:81:4e","",-74,,-127,0x0000,0x00
2026-01-19T22:53:13Z,35.4582792,-78.9015750,115.8,363,4,1,,,,,,,WIFI,D,"02:17:1A:D6:22:12","Winegard2ghzD62211",-69,13,4,,,
2026-01-19T22:53:13Z,35.4582792,-78.9015750,115.8,363,4,1,,,,,,,WIFI,A,"02:17:1A:D6:22:12","Winegard2ghzD62211",-73,3,4,,,
2026-01-19T22:53:13Z,35.4582792,-78.9015750,115.8,363,4,1,,,,,,,BLE,M,"7f:04:22:2b:81:4e","",-75,,-127,0x0000,0x00
2026-01-19T22:53:13Z,35.4582792,-78.9015750,115.8,363,4,1,,,,,,,BLE,M,"70:5e:07:83:be:4a","",-94,,0,0x0000,0x00
2026-01-19T22:53:13Z,35.4582792,-78.9015750,115.8,363,4,1,,,,,,,WIFI,A,"0A:17:1A:D6:22:12","",-70,3,4,,,
2026-01-19T22:53:13Z,35.4582792,-78.9015750,115.8,363,4,1,,,,,,,BLE,M,"f7:05:ff:20:82:fe","",-98,,-127,0x0000,0x00
2026-01-19T22:53:13Z,35.4582792,-78.9015750,115.8,363,4,1,,,,,,,BLE,M,"51:3b:3e:ce:a4:ec","",-96,,12,0x0000,0x00
2026-01-19T22:53:14Z,35.4582717,-78.9016048,117.2,363,4,1,,,,,,,BLE,M,"3d:55:43:33:7c:00","",-66,,-127,0x0000,0x00
2026-01-19T22:53:14Z,35.4582717,-78.9016048,117.2,363,4,1,,,,,,,BLE,M,"26:ed:ab:54:e4:4d","",-57,,-127,0x0000,0x00
2026-01-19T22:53:14Z,35.4582717,-78.9016048,117.2,363,4,1,,,,,,,BLE,M,"40:15:65:d8:da:e5","",-95,,12,0x0000,0x00
2026-01-19T22:53:14Z,35.4582717,-78.9016048,117.2,363,4,1,,,,,,,BLE,M,"3d:55:43:33:7c:00","",-58,,-127,0x0000,0x00
2026-01-19T22:53:14Z,35.4582717,-78.9016048,117.2,363,4,1,,,,,,,BLE,M,"de:b4:fa:ed:7e:2f","",-94,,-127,0x0000,0x01
2026-01-19T22:53:14Z,35.4582717,-78.9016048,117.2,363,4,1,,,,,,,BLE,M,"26:ed:ab:54:e4:4d","",-58,,-127,0x0000,0x00
2026-01-19T22:53:14Z,35.4582717,-78.9016048,117.2,363,4,1,,,,,,,BLE,M,"3d:55:43:33:7c:00","",-59,,-127,0x0000,0x00
2026-01-19T22:53:14Z,35.4582717,-78.9016048,117.2,363,4,1,,,,,,,BLE,M,"26:ed:ab:54:e4:4d","",-58,,-127,0x0000,0x00
2026-01-19T22:53:15Z,35.4582612,-78.9016568,117.4,363,4,1,,,,,,,BLE,M,"3d:55:43:33:7c:00","",-58,,-127,0x0000,0x00
2026-01-19T22:53:15Z,35.4582612,-78.9016568,117.4,363,4,1,,,,,,,BLE,M,"70:5e:07:83:be:4a","",-93,,0,0x0000,0x00
2026-01-19T22:53:15Z,35.4582612,-78.9016568,117.4,363,4,1,,,,,,,WIFI,C,"02:17:1A:D6:22:12","Winegard2ghzD62211",-73,8,4,,,
2026-01-19T22:53:15Z,35.4582612,-78.9016568,117.4,363,4,1,,,,,,,WIFI,C,"0A:17:1A:D6:22:12","",-73,8,4,,,
2026-01-19T22:53:15Z,35.4582612,-78.9016568,117.4,363,4,1,,,,,,,WIFI,B,"02:17:1A:D6:22:12","Winegard2ghzD62211",-71,5,4,,,
2026-01-19T22:53:15Z,35.4582612,-78.9016568,117.4,363,4,1,,,,,,,BLE,M,"de:b4:fa:ed:7e:2f","",-96,,-127,0x0000,0x01
2026-01-19T22:53:15Z,35.4582612,-78.9016568,117.4,363,4,1,,,,,,,WIFI,B,"0A:17:1A:D6:22:12","",-68,5,4,,,
2026-01-19T22:53:15Z,35.4582612,-78.9016568,117.4,363,4,1,,,,,,,WIFI,D,"02:17:1A:D6:22:12","Winegard2ghzD62211",-72,14,4,,,
2026-01-19T22:53:15Z,35.4582612,-78.9016568,117.4,363,4,1,,,,,,,BLE,M,"7f:04:22:2b:81:4e","",-75,,-127,0x0000,0x00
2026-01-19T22:53:16Z,35.4582668,-78.9016877,117.4,363,4,1,,,,,,,WIFI,A,"02:17:1A:D6:22:12","Winegard2ghzD62211",-69,4,4,,,
2026-01-19T22:53:16Z,35.4582668,-78.9016877,118.4,363,4,1,,,,,,,BLE,M,"7f:04:22:2b:81:4e","",-74,,-127,0x0000,0x00
2026-01-19T22:53:16Z,35.4582668,-78.9016877,118.4,363,4,1,,,,,,,BLE,M,"3d:55:43:33:7c:00","",-59,,-127,0x0000,0x00
2026-01-19T22:53:16Z,35.4582668,-78.9016877,118.4,363,4,1,,,,,,,BLE,M,"26:ed:ab:54:e4:4d","",-63,,-127,0x0000,0x00
2026-01-19T22:53:16Z,35.4582668,-78.9016877,118.4,363,4,1,,,,,,,BLE,M,"7f:04:22:2b:81:4e","",-75,,-127,0x0000,0x00
2026-01-19T22:53:16Z,35.4582668,-78.9016877,118.4,363,4,1,,,,,,,BLE,M,"e8:e6:18:d4:1e:19","",-97,,-127,0x0000,0x00
2026-01-19T22:53:16Z,35.4582668,-78.9016877,118.4,363,4,1,,,,,,,BLE,M,"3d:55:43:33:7c:00","",-59,,-127,0x0000,0x00
2026-01-19T22:53:16Z,35.4582668,-78.9016877,118.4,363,4,1,,,,,,,BLE,M,"26:ed:ab:54:e4:4d","",-65,,-127,0x0000,0x00
2026-01-19T22:53:16Z,35.4582668,-78.9016877,118.4,363,4,1,,,,,,,BLE,M,"7f:04:22:2b:81:4e","",-75,,-127,0x0000,0x00
2026-01-19T22:53:16Z,35.4582668,-78.9016877,118.4,363,4,1,,,,,,,BLE,M,"3d:55:43:33:7c:00","",-58,,-127,0x0000,0x00
2026-01-19T22:53:16Z,35.4582668,-78.9016877,118.4,363,4,1,,,,,,,BLE,M,"26:ed:ab:54:e4:4d","",-67,,-127,0x0000,0x00
2026-01-19T22:53:17Z,35.4582677,-78.9017347,118.9,363,4,1,,,,,,,BLE,M,"3d:55:43:33:7c:00","",-59,,-127,0x0000,0x00
2026-01-19T22:53:17Z,35.4582677,-78.9017347,118.9,363,4,1,,,,,,,WIFI,C,"02:17:1A:D6:22:12","Winegard2ghzD62211",-68,9,4,,,
2026-01-19T22:53:17Z,35.4582677,-78.9017347,118.9,363,4,1,,,,,,,WIFI,C,"0A:17:1A:D6:22:12","",-66,9,4,,,
2026-01-19T22:53:17Z,35.4582677,-78.9017347,118.9,363,4,1,,,,,,,WIFI,B,"02:17:1A:D6:22:12","Winegard2ghzD62211",-74,6,4,,,
2026-01-19T22:53:18Z,35.4582813,-78.9017590,118.8,363,4,1,,,,,,,BLE,M,"26:ed:ab:54:e4:4d","",-62,,-127,0x0000,0x00
2026-01-19T22:53:18Z,35.4582813,-78.9017590,118.8,363,4,1,,,,,,,WIFI,D,"02:17:1A:D6:22:12","Winegard2ghzD62211",-72,11,4,,,
2026-01-19T22:53:18Z,35.4582813,-78.9017590,118.8,363,4,1,,,,,,,BLE,M,"3d:55:43:33:7c:00","",-58,,-127,0x0000,0x00
2026-01-19T22:53:18Z,35.4582813,-78.9017590,118.8,363,4,1,,,,,,,BLE,M,"25:19:ce:2a:ae:6c","",-75,,-127,0x0000,0x00
2026-01-19T22:53:18Z,35.4582813,-78.9017590,118.8,363,4,1,,,,,,,BLE,M,"26:ed:ab:54:e4:4d","",-64,,-127,0x0000,0x00
2026-01-19T22:53:18Z,35.4582813,-78.9017590,118.8,363,4,1,,,,,,,WIFI,D,"0A:17:1A:D6:22:12","",-68,11,4,,,
2026-01-19T22:53:18Z,35.4582813,-78.9017590,118.8,363,4,1,,,,,,,BLE,M,"7f:04:22:2b:81:4e","",-75,,-127,0x0000,0x00
2026-01-19T22:53:18Z,35.4582813,-78.9017590,118.8,363,4,1,,,,,,,BLE,M,"3d:55:43:33:7c:00","",-59,,-127,0x0000,0x00
2026-01-19T22:53:18Z,35.4582813,-78.9017590,118.8,363,4,1,,,,,,,BLE,M,"26:ed:ab:54:e4:4d","",-70,,-127,0x0000,0x00
2026-01-19T22:53:18Z,35.4582813,-78.9017590,118.8,363,4,1,,,,,,,WIFI,A,"02:17:1A:D6:22:12","Winegard2ghzD62211",-66,1,4,,,
2026-01-19T22:53:18Z,35.4582813,-78.9017590,118.8,363,4,1,,,,,,,WIFI,A,"0A:17:1A:D6:22:12","",-65,1,4,,,
2026-01-19T22:53:18Z,35.4582813,-78.9017590,118.8,363,4,1,,,,,,,BLE,M,"7f:04:22:2b:81:4e","",-74,,-127,0x0000,0x00
2026-01-19T22:53:18Z,35.4582813,-78.9017590,118.8,363,4,1,,,,,,,BLE,M,"3d:55:43:33:7c:00","",-59,,-127,0x0000,0x00
2026-01-19T22:53:18Z,35.4582813,-78.9017590,118.8,363,4,1,,,,,,,BLE,M,"26:ed:ab:54:e4:4d","",-63,,-127,0x0000,0x00
2026-01-19T22:53:19Z,35.4583047,-78.9017772,118.7,363,4,1,,,,,,,BLE,M,"7f:04:22:2b:81:4e","",-74,,-127,0x0000,0x00
2026-01-19T22:53:19Z,35.4583047,-78.9017772,118.7,363,4,1,,,,,,,BLE,M,"3d:55:43:33:7c:00","",-57,,-127,0x0000,0x00
2026-01-19T22:53:19Z,35.4583047,-78.9017772,118.7,363,4,1,,,,,,,BLE,M,"25:19:ce:2a:ae:6c","",-74,,-127,0x0000,0x00
2026-01-19T22:53:19Z,35.4583047,-78.9017772,118.7,363,4,1,,,,,,,BLE,M,"7f:04:22:2b:81:4e","",-74,,-127,0x0000,0x00
2026-01-19T22:53:19Z,35.4583047,-78.9017772,118.7,363,4,1,,,,,,,BLE,M,"7f:04:22:2b:81:4e","",-73,,-127,0x0000,0x00
2026-01-19T22:53:20Z,35.4583237,-78.9018678,116.6,363,4,1,,,,,,,BLE,M,"26:ed:ab:54:e4:4d","",-75,,-127,0x0000,0x00
2026-01-19T22:53:20Z,35.4583237,-78.9018678,116.6,363,4,1,,,,,,,WIFI,C,"02:17:1A:D6:22:12","Winegard2ghzD62211",-74,10,4,,,
2026-01-19T22:53:20Z,35.4583237,-78.9018678,116.6,363,4,1,,,,,,,WIFI,B,"02:17:1A:D6:22:12","Winegard2g`zD62211",-70,7,4,,,
2026-01-19T22:53:20Z,35.4583237,-78.9018678,116.6,363,4,1,,,,,,,WIFI,B,"0A:17:1A:D6:22:12","",-71,7,4,,,
2026-01-19T22:53:20Z,35.4583237,-78.9018678,116.6,363,4,1,,,,,,,BLE,M,"3d:55:43:33:7c:00","",-58,,-127,0x0000,0x00
2026-01-19T22:53:20Z,35.4583237,-78.9018678,116.6,363,4,1,,,,,,,BLE,M,"26:ed:ab:54:e4:4d","",-66,,-127,0x0000,0x00
2026-01-19T22:53:20Z,35.4583237,-78.9018678,116.6,363,4,1,,,,,,,BLE,M,"25:19:ce:2a:ae:6c","",-73,,-127,0x0000,0x00
2026-01-19T22:53:20Z,35.4583237,-78.9018678,116.6,363,4,1,,,,,,,BLE,M,"3d:55:43:33:7c:00","",-59,,-127,0x0000,0x00
2026-01-19T22:53:20Z,35.4583237,-78.9018678,116.6,363,4,1,,,,,,,BLE,M,"26:ed:ab:54:e4:4d","",-65,,-127,0x0000,0x00
2026-01-19T22:53:20Z,35.4583237,-78.9018678,116.6,363,4,1,,,,,,,WIFI,D,"02:17:1A:D6:22:12","Winegard2ghzD62211",-76,12,4,,,
2026-01-19T22:53:20Z,35.4583237,-78.9018678,116.6,363,4,1,,,,,,,WIFI,D,"0A:17:1A:D6:22:12","",-73,12,4,,,
2026-01-19T22:53:21Z,35.4583727,-78.9019290,116.6,363,4,1,,,,,,,WIFI,A,"02:17:1A:D6:22:12","Winegard2ghzD62211",-76,2,4,,,
2026-01-19T22:53:21Z,35.4583727,-78.9019290,103.8,873,3,1,,,,,,,BLE,M,"7f:04:22:2b:81:4e","",-76,,-127,0x0000,0x00
2026-01-19T22:53:21Z,35.4583727,-78.9019290,103.8,873,3,1,,,,,,,BLE,M,"1d:50:a9:d3:bb:17","",-59,,-127,0x0000,0x00
2026-01-19T22:53:21Z,35.4583727,-78.9019290,103.8,873,3,1,,,,,,,BLE,M,"7f:04:22:2b:81:4e","",-76,,-127,0x0000,0x00
2026-01-19T22:53:21Z,35.4583727,-78.9019290,103.8,873,3,1,,,,,,,BLE,M,"7f:04:22:2b:81:4e","",-75,,-127,0x0000,0x00
2026-01-19T22:53:21Z,35.4583727,-78.9019290,103.8,873,3,1,,,,,,,BLE,M,"1d:50:a9:d3:bb:17","",-59,,-127,0x0000,0x00
2026-01-19T22:53:21Z,35.4583727,-78.9019290,103.8,873,3,1,,,,,,,BLE,M,"7f:04:22:2b:81:4e","",-74,,-127,0x0000,0x00
2026-01-19T22:53:21Z,35.4583727,-78.9019290,103.8,873,3,1,,,,,,,BLE,M,"1d:50:a9:d3:bb:17","",-59,,-127,0x0000,0x00
2026-01-19T22:53:22Z,35.4583923,-78.9020013,95.2,873,3,1,,,,,,,BLE,M,"26:ed:ab:54:e4:4d","",-58,,-127,0x0000,0x00
2026-01-19T22:53:22Z,35.4583923,-78.9020013,95.2,873,3,1,,,,,,,BLE,M,"7f:04:22:2b:81:4e","",-75,,-127,0x0000,0x00
2026-01-19T22:53:22Z,35.4583923,-78.9020013,95.2,873,3,1,,,,,,,BLE,M,"26:ed:ab:54:e4:4d","",-53,,-127,0x0000,0x00
2026-01-19T22:53:22Z,35.4583923,-78.9020013,95.2,873,3,1,,,,,,,BLE,M,"26:ed:ab:54:e4:4d","",-70,,-127,0x0000,0x00
2026-01-19T22:53:22Z,35.4583923,-78.9020013,95.2,873,3,1,,,,,,,WIFI,C,"02:17:1A:D6:22:12","Winegard2ghzD62211",-79,8,4,,,
2026-01-19T22:53:22Z,35.4583923,-78.9020013,95.2,873,3,1,,,,,,,WIFI,C,"0A:17:1A:D6:22:12","",-78,8,4,,,
2026-01-19T22:53:23Z,35.4584023,-78.9020700,95.2,873,3,1,,,,,,,WIFI,B,"02:17:1A:D6:22:12","Winegard2ghzD62211",-79,5,4,,,
2026-01-19T22:53:23Z,35.4584023,-78.9020700,95.2,873,3,1,,,,,,,WIFI,B,"0A:17:1A:D6:22:12","",-82,5,4,,,
